[
  {
    "buoy_id": "0y2w3",
    "name": "Sturgeon Bay CG Station, WI",
    "lat": 44.794,
    "lng": -87.313,
    "is_public": true
  },
  {
    "buoy_id": "13001",
    "name": "NE Extension",
    "lat": 12,
    "lng": -23,
    "is_public": true
  },
  {
    "buoy_id": "13002",
    "name": "NE Extension",
    "lat": 21,
    "lng": -23,
    "is_public": true
  },
  {
    "buoy_id": "13008",
    "name": "Reggae",
    "lat": 15,
    "lng": -38,
    "is_public": true
  },
  {
    "buoy_id": "13009",
    "name": "Lambada",
    "lat": 8,
    "lng": -38,
    "is_public": true
  },
  {
    "buoy_id": "13010",
    "name": "Soul",
    "lat": 0,
    "lng": 0,
    "is_public": true
  },
  {
    "buoy_id": "14040",
    "name": "14040",
    "lat": -8,
    "lng": 67,
    "is_public": true
  },
  {
    "buoy_id": "14041",
    "name": "14041",
    "lat": -8,
    "lng": 55,
    "is_public": true
  },
  {
    "buoy_id": "14043",
    "name": "14043",
    "lat": -12,
    "lng": 67,
    "is_public": true
  },
  {
    "buoy_id": "14047",
    "name": "14047",
    "lat": -4,
    "lng": 57,
    "is_public": true
  },
  {
    "buoy_id": "14048",
    "name": "14048",
    "lat": -8,
    "lng": 65,
    "is_public": true
  },
  {
    "buoy_id": "14049",
    "name": "14049",
    "lat": -12,
    "lng": 65,
    "is_public": true
  },
  {
    "buoy_id": "15001",
    "name": "Gavotte",
    "lat": -10,
    "lng": -10,
    "is_public": true
  },
  {
    "buoy_id": "15002",
    "name": "Java",
    "lat": 0,
    "lng": -10,
    "is_public": true
  },
  {
    "buoy_id": "15006",
    "name": "Valse",
    "lat": -6,
    "lng": -10,
    "is_public": true
  },
  {
    "buoy_id": "15007",
    "name": "SE Extension",
    "lat": -6,
    "lng": 8,
    "is_public": true
  },
  {
    "buoy_id": "15008",
    "name": "15008",
    "lat": -20,
    "lng": -10,
    "is_public": true
  },
  {
    "buoy_id": "15009",
    "name": "15009",
    "lat": 0,
    "lng": -3.051,
    "is_public": true
  },
  {
    "buoy_id": "1801583",
    "name": "SD 1063 - 24 NM SSW of San Francisco, CA (Site of 46012)",
    "lat": 37.356,
    "lng": -122.881,
    "is_public": true
  },
  {
    "buoy_id": "1801589",
    "name": "SD 1073 - 24 NM SSW of San Francisco, CA (Site of 46012)",
    "lat": 37.356,
    "lng": -122.881,
    "is_public": true
  },
  {
    "buoy_id": "1801593",
    "name": "SD 1077 - 24 NM SSW of San Francisco, CA (Site of 46012)",
    "lat": 37.356,
    "lng": -122.881,
    "is_public": true
  },
  {
    "buoy_id": "18ci3",
    "name": "Michigan City CG Station, IN",
    "lat": 41.73,
    "lng": -86.91,
    "is_public": true
  },
  {
    "buoy_id": "18cy3",
    "name": "Michigan City, IN",
    "lat": 41.73,
    "lng": -86.91,
    "is_public": true
  },
  {
    "buoy_id": "20cm4",
    "name": "St. Joseph CG Station, MI",
    "lat": 42.09,
    "lng": -86.49,
    "is_public": true
  },
  {
    "buoy_id": "21178",
    "name": "South of Shikoku",
    "lat": 33.12,
    "lng": 133.62,
    "is_public": true
  },
  {
    "buoy_id": "21346",
    "name": "21346  380km East of Iwate, Japan",
    "lat": 40.302,
    "lng": 146.192,
    "is_public": true
  },
  {
    "buoy_id": "21347",
    "name": "21347  320km East of Iwate, Japan",
    "lat": 39.601,
    "lng": 145.799,
    "is_public": true
  },
  {
    "buoy_id": "21348",
    "name": "21348   350km East of Miyagi, Japan",
    "lat": 38.816,
    "lng": 145.595,
    "is_public": true
  },
  {
    "buoy_id": "21401",
    "name": "250NM Southeast of Iturup Island",
    "lat": 42.617,
    "lng": 152.583,
    "is_public": true
  },
  {
    "buoy_id": "21402",
    "name": "286NM East of Simushir Island",
    "lat": 46.488,
    "lng": 158.343,
    "is_public": true
  },
  {
    "buoy_id": "21413",
    "name": "SOUTHEAST TOKYO - 700NM ESE of Tokyo, JP",
    "lat": 30.487,
    "lng": 152.124,
    "is_public": true
  },
  {
    "buoy_id": "21414",
    "name": "AMCHITKA - 170 NM South of Amchitka, AK",
    "lat": 48.97,
    "lng": 178.165,
    "is_public": true
  },
  {
    "buoy_id": "21415",
    "name": "ATTU - 175 NM South of Attu, AK",
    "lat": 50.12,
    "lng": 171.867,
    "is_public": true
  },
  {
    "buoy_id": "21416",
    "name": "KAMCHATKA PENINSULA - 240NM SE of Kamchatka Peninsula, RU",
    "lat": 48.126,
    "lng": 163.355,
    "is_public": true
  },
  {
    "buoy_id": "21417",
    "name": "290NM SE of the Kuril Islands",
    "lat": 43.192,
    "lng": 157.142,
    "is_public": true
  },
  {
    "buoy_id": "21418",
    "name": "NORTHEAST TOKYO - 450 NM NE of Tokyo, JP",
    "lat": 38.73,
    "lng": 148.8,
    "is_public": true
  },
  {
    "buoy_id": "21419",
    "name": "KURIL ISLANDS - 209NM SE of Kuril Is.",
    "lat": 44.401,
    "lng": 155.653,
    "is_public": true
  },
  {
    "buoy_id": "21420",
    "name": "SOUTHEAST MIYAZAKI - 260NM Southeast of Miyazaki",
    "lat": 28.98,
    "lng": 134.973,
    "is_public": true
  },
  {
    "buoy_id": "21595",
    "name": "Drifter",
    "lat": 36.7,
    "lng": -132.167,
    "is_public": true
  },
  {
    "buoy_id": "21597",
    "name": "Drifter",
    "lat": 32.8,
    "lng": 155.2,
    "is_public": true
  },
  {
    "buoy_id": "21598",
    "name": "Drifter",
    "lat": 31.3,
    "lng": 152.7,
    "is_public": true
  },
  {
    "buoy_id": "21600",
    "name": "Drifter",
    "lat": 40.7,
    "lng": 154.5,
    "is_public": true
  },
  {
    "buoy_id": "21636",
    "name": "Drifter",
    "lat": 31.5,
    "lng": 127.4,
    "is_public": true
  },
  {
    "buoy_id": "21637",
    "name": "Drifter",
    "lat": 29.3,
    "lng": 141.25,
    "is_public": true
  },
  {
    "buoy_id": "21640",
    "name": "Drifter",
    "lat": 28.3,
    "lng": 135.5,
    "is_public": true
  },
  {
    "buoy_id": "21707",
    "name": "21707",
    "lat": 25,
    "lng": 136,
    "is_public": true
  },
  {
    "buoy_id": "21d13",
    "name": "SOUTHEAST TOKYO - 700NM ESE of Tokyo, JP",
    "lat": 30.514,
    "lng": 152.123,
    "is_public": true
  },
  {
    "buoy_id": "21d20",
    "name": "Adrift buoy from 21420",
    "lat": 28.91,
    "lng": 134.999,
    "is_public": true
  },
  {
    "buoy_id": "22101",
    "name": "22101",
    "lat": 37.23,
    "lng": 126.02,
    "is_public": true
  },
  {
    "buoy_id": "22102",
    "name": "22102",
    "lat": 34.8,
    "lng": 125.77,
    "is_public": true
  },
  {
    "buoy_id": "22103",
    "name": "22103",
    "lat": 34,
    "lng": 127.5,
    "is_public": true
  },
  {
    "buoy_id": "22104",
    "name": "22104",
    "lat": 34.77,
    "lng": 128.9,
    "is_public": true
  },
  {
    "buoy_id": "22105",
    "name": "22105",
    "lat": 37.53,
    "lng": 130,
    "is_public": true
  },
  {
    "buoy_id": "22106",
    "name": "22106",
    "lat": 36.35,
    "lng": 129.78,
    "is_public": true
  },
  {
    "buoy_id": "22107",
    "name": "22107",
    "lat": 33.08,
    "lng": 126.03,
    "is_public": true
  },
  {
    "buoy_id": "22108",
    "name": "22108",
    "lat": 36.25,
    "lng": 125.75,
    "is_public": true
  },
  {
    "buoy_id": "23001",
    "name": "23001",
    "lat": 0,
    "lng": 81,
    "is_public": true
  },
  {
    "buoy_id": "23003",
    "name": "23003",
    "lat": -2,
    "lng": 81,
    "is_public": true
  },
  {
    "buoy_id": "23004",
    "name": "23004",
    "lat": 0,
    "lng": 90,
    "is_public": true
  },
  {
    "buoy_id": "23006",
    "name": "23006",
    "lat": 4,
    "lng": 90,
    "is_public": true
  },
  {
    "buoy_id": "23007",
    "name": "23007",
    "lat": 8,
    "lng": 90,
    "is_public": true
  },
  {
    "buoy_id": "23008",
    "name": "23008",
    "lat": 12,
    "lng": 90,
    "is_public": true
  },
  {
    "buoy_id": "23009",
    "name": "23009",
    "lat": 15,
    "lng": 90,
    "is_public": true
  },
  {
    "buoy_id": "23010",
    "name": "23010",
    "lat": -4,
    "lng": 81,
    "is_public": true
  },
  {
    "buoy_id": "23011",
    "name": "23011",
    "lat": 15,
    "lng": 65,
    "is_public": true
  },
  {
    "buoy_id": "23012",
    "name": "23012",
    "lat": 8,
    "lng": 67,
    "is_public": true
  },
  {
    "buoy_id": "23013",
    "name": "23013",
    "lat": 4,
    "lng": 67,
    "is_public": true
  },
  {
    "buoy_id": "23014",
    "name": "23014",
    "lat": 2,
    "lng": 67,
    "is_public": true
  },
  {
    "buoy_id": "23015",
    "name": "23015",
    "lat": 0,
    "lng": 67,
    "is_public": true
  },
  {
    "buoy_id": "23016",
    "name": "23016",
    "lat": -2,
    "lng": 67,
    "is_public": true
  },
  {
    "buoy_id": "23017",
    "name": "23017",
    "lat": -4,
    "lng": 67,
    "is_public": true
  },
  {
    "buoy_id": "23019",
    "name": "23019",
    "lat": -4,
    "lng": 65,
    "is_public": true
  },
  {
    "buoy_id": "23020",
    "name": "Red Sea",
    "lat": 22.162,
    "lng": 38.5,
    "is_public": true
  },
  {
    "buoy_id": "23217",
    "name": "Bay of Bengal IN3",
    "lat": 3.798,
    "lng": 91.701,
    "is_public": true
  },
  {
    "buoy_id": "23218",
    "name": "Bay of Bengal IN4",
    "lat": 10.165,
    "lng": 88.5,
    "is_public": true
  },
  {
    "buoy_id": "23219",
    "name": "Bay of Bengal",
    "lat": 13.472,
    "lng": 88.998,
    "is_public": true
  },
  {
    "buoy_id": "23220",
    "name": "Bay of Bengal",
    "lat": 14.433,
    "lng": 89.333,
    "is_public": true
  },
  {
    "buoy_id": "23223",
    "name": "Bay of Bengal",
    "lat": 17.333,
    "lng": 89.483,
    "is_public": true
  },
  {
    "buoy_id": "23225",
    "name": "23225",
    "lat": 18.63,
    "lng": 67.18,
    "is_public": true
  },
  {
    "buoy_id": "23226",
    "name": "Arabian Sea",
    "lat": 20.2,
    "lng": 67.333,
    "is_public": true
  },
  {
    "buoy_id": "23227",
    "name": "Bay of Bengal",
    "lat": 6.265,
    "lng": 88.653,
    "is_public": true
  },
  {
    "buoy_id": "23228",
    "name": "Arabian Sea",
    "lat": 20.764,
    "lng": 65.284,
    "is_public": true
  },
  {
    "buoy_id": "23401",
    "name": "BAY OF BENGAL - 600 NM WNW of Phuket, Thailand",
    "lat": 8.86,
    "lng": 88.55,
    "is_public": true
  },
  {
    "buoy_id": "23461",
    "name": "ANDAMAN SEA - 180 NM NW of Phuket, Thailand",
    "lat": 9.534,
    "lng": 95.669,
    "is_public": true
  },
  {
    "buoy_id": "28401",
    "name": "Kuroshio Extension Observatory (KEO)",
    "lat": 32.384,
    "lng": 144.54,
    "is_public": true
  },
  {
    "buoy_id": "31001",
    "name": "Samba",
    "lat": 0,
    "lng": -35,
    "is_public": true
  },
  {
    "buoy_id": "31002",
    "name": "Frevo",
    "lat": 4,
    "lng": -38,
    "is_public": true
  },
  {
    "buoy_id": "31003",
    "name": "Para?ba",
    "lat": -8,
    "lng": -30,
    "is_public": true
  },
  {
    "buoy_id": "31004",
    "name": "Salvador",
    "lat": -14,
    "lng": -32,
    "is_public": true
  },
  {
    "buoy_id": "31005",
    "name": "Espirito Santo",
    "lat": -19,
    "lng": -34,
    "is_public": true
  },
  {
    "buoy_id": "31006",
    "name": "NE Extension",
    "lat": 4,
    "lng": -23,
    "is_public": true
  },
  {
    "buoy_id": "31007",
    "name": "Jazz",
    "lat": 0,
    "lng": -23,
    "is_public": true
  },
  {
    "buoy_id": "31051",
    "name": "Santos",
    "lat": -25.283,
    "lng": -44.933,
    "is_public": true
  },
  {
    "buoy_id": "31052",
    "name": "RECIFE",
    "lat": -8.15,
    "lng": -34.567,
    "is_public": true
  },
  {
    "buoy_id": "31053",
    "name": "RIO GRANDE DO SUL",
    "lat": -32.595,
    "lng": -51.353,
    "is_public": true
  },
  {
    "buoy_id": "31201",
    "name": "Floripa, Brazil (109)",
    "lat": -27.705,
    "lng": -48.134,
    "is_public": true
  },
  {
    "buoy_id": "31260",
    "name": "31260",
    "lat": -23.031,
    "lng": -43.088,
    "is_public": true
  },
  {
    "buoy_id": "31261",
    "name": "31261",
    "lat": -31.538,
    "lng": -49.862,
    "is_public": true
  },
  {
    "buoy_id": "31478",
    "name": "31478",
    "lat": -22.882,
    "lng": -43.132,
    "is_public": true
  },
  {
    "buoy_id": "32012",
    "name": "Woods Hole Stratus Wave Station",
    "lat": -19.425,
    "lng": -85.078,
    "is_public": true
  },
  {
    "buoy_id": "3202520",
    "name": "San Cristobal - Galapagos (B1-S)",
    "lat": -4.148,
    "lng": -89.008,
    "is_public": true
  },
  {
    "buoy_id": "3202521",
    "name": "Isabela - Galapagos (B2-W)",
    "lat": -0.525,
    "lng": -81.386,
    "is_public": true
  },
  {
    "buoy_id": "32066",
    "name": "Ecuador INOCAR",
    "lat": -1.136,
    "lng": -81.765,
    "is_public": true
  },
  {
    "buoy_id": "32067",
    "name": "ECUADOR INOCAR",
    "lat": 0.641,
    "lng": -81.262,
    "is_public": true
  },
  {
    "buoy_id": "32068",
    "name": "Manta - 58 NM West of Manta, Ecuador",
    "lat": -0.891,
    "lng": -81.637,
    "is_public": true
  },
  {
    "buoy_id": "32069",
    "name": "Esmeraldas - 71 NM West of Pedernales, Ecuador",
    "lat": 0.278,
    "lng": -81.185,
    "is_public": true
  },
  {
    "buoy_id": "32301",
    "name": "32301",
    "lat": -9.9,
    "lng": -105.2,
    "is_public": true
  },
  {
    "buoy_id": "32302",
    "name": "32302",
    "lat": -18,
    "lng": -85.1,
    "is_public": true
  },
  {
    "buoy_id": "32401",
    "name": "180 NM West of Iquique, Chile",
    "lat": -20.442,
    "lng": -73.422,
    "is_public": true
  },
  {
    "buoy_id": "32402",
    "name": "180 NM  West of Caldera, Chile",
    "lat": -26.743,
    "lng": -73.983,
    "is_public": true
  },
  {
    "buoy_id": "32403",
    "name": "91NM West of Antofagasta, Chile",
    "lat": -23.163,
    "lng": -72.037,
    "is_public": true
  },
  {
    "buoy_id": "32404",
    "name": "120 NM NW of Valparaiso",
    "lat": -32.13,
    "lng": -73.797,
    "is_public": true
  },
  {
    "buoy_id": "32411",
    "name": "WEST PANAMA - 710 NM WSW of Panama City, Panama",
    "lat": 4.979,
    "lng": -90.793,
    "is_public": true
  },
  {
    "buoy_id": "32412",
    "name": "SOUTHWEST LIMA - 645 NM SW of Lima, Peru",
    "lat": -17.984,
    "lng": -86.374,
    "is_public": true
  },
  {
    "buoy_id": "32413",
    "name": "NORTHWEST LIMA - 1000 NM WNW of Lima, Peru",
    "lat": -7.432,
    "lng": -93.464,
    "is_public": true
  },
  {
    "buoy_id": "32487",
    "name": "Buenaventura, Colombia",
    "lat": 3.517,
    "lng": -77.737,
    "is_public": true
  },
  {
    "buoy_id": "32488",
    "name": "Bahia Solano, Colombia",
    "lat": 6.258,
    "lng": -77.511,
    "is_public": true
  },
  {
    "buoy_id": "32489",
    "name": "Colombia   121NM SW of Buenaventura, Colombia",
    "lat": 2.998,
    "lng": -79.101,
    "is_public": true
  },
  {
    "buoy_id": "32d12",
    "name": "SOUTHWEST LIMA 645NM SW of Lima, Peru",
    "lat": -17.98,
    "lng": -86.33,
    "is_public": true
  },
  {
    "buoy_id": "32d13",
    "name": "ADRIFT BUOY FROM 32413",
    "lat": -7.43,
    "lng": -93.48,
    "is_public": true
  },
  {
    "buoy_id": "32st0",
    "name": "Stratus",
    "lat": -22,
    "lng": -85,
    "is_public": true
  },
  {
    "buoy_id": "34002",
    "name": "OOI Southern Ocean Buoy",
    "lat": -55,
    "lng": -90,
    "is_public": true
  },
  {
    "buoy_id": "34420",
    "name": "119NM NW of Concepcion, Chile",
    "lat": -35.758,
    "lng": -75.243,
    "is_public": true
  },
  {
    "buoy_id": "41001",
    "name": "EAST HATTERAS - 150 NM East of Cape Hatteras",
    "lat": 34.791,
    "lng": -72.42,
    "is_public": true
  },
  {
    "buoy_id": "41002",
    "name": "SOUTH HATTERAS - 225 NM South of Cape Hatteras",
    "lat": 31.743,
    "lng": -74.955,
    "is_public": true
  },
  {
    "buoy_id": "41003",
    "name": "41003",
    "lat": 30.4,
    "lng": -80.1,
    "is_public": true
  },
  {
    "buoy_id": "41004",
    "name": "EDISTO - 41 NM Southeast of Charleston, SC",
    "lat": 32.502,
    "lng": -79.099,
    "is_public": true
  },
  {
    "buoy_id": "41005",
    "name": "41005",
    "lat": 31.7,
    "lng": -79.7,
    "is_public": true
  },
  {
    "buoy_id": "41006",
    "name": "41006",
    "lat": 29.3,
    "lng": -77.4,
    "is_public": true
  },
  {
    "buoy_id": "41007",
    "name": "41007",
    "lat": 34.2,
    "lng": -76.5,
    "is_public": true
  },
  {
    "buoy_id": "41008",
    "name": "GRAYS REEF - 40 NM Southeast of Savannah, GA",
    "lat": 31.4,
    "lng": -80.866,
    "is_public": true
  },
  {
    "buoy_id": "41009",
    "name": "CANAVERAL 20 NM East of Cape Canaveral, FL",
    "lat": 28.508,
    "lng": -80.185,
    "is_public": true
  },
  {
    "buoy_id": "41010",
    "name": "CANAVERAL EAST - 120NM East of Cape Canaveral",
    "lat": 28.878,
    "lng": -78.467,
    "is_public": true
  },
  {
    "buoy_id": "41011",
    "name": "41011",
    "lat": 28.2,
    "lng": -80.1,
    "is_public": true
  },
  {
    "buoy_id": "41012",
    "name": "St. Augustine, FL 40NM ENE of St Augustine, FL",
    "lat": 30.042,
    "lng": -80.534,
    "is_public": true
  },
  {
    "buoy_id": "41013",
    "name": "Frying Pan Shoals, NC",
    "lat": 33.441,
    "lng": -77.764,
    "is_public": true
  },
  {
    "buoy_id": "41015",
    "name": "41015",
    "lat": 35.4,
    "lng": -75.3,
    "is_public": true
  },
  {
    "buoy_id": "41016",
    "name": "41016",
    "lat": 24.6,
    "lng": -76.5,
    "is_public": true
  },
  {
    "buoy_id": "41017",
    "name": "41017",
    "lat": 35.4,
    "lng": -75.1,
    "is_public": true
  },
  {
    "buoy_id": "41018",
    "name": "41018",
    "lat": 15,
    "lng": -75,
    "is_public": true
  },
  {
    "buoy_id": "41021",
    "name": "Olympic Northeast",
    "lat": 31.92,
    "lng": -80.85,
    "is_public": true
  },
  {
    "buoy_id": "41022",
    "name": "Olympic Southwest",
    "lat": 31.89,
    "lng": -80.86,
    "is_public": true
  },
  {
    "buoy_id": "41023",
    "name": "Olympic Southwest",
    "lat": 31.92,
    "lng": -80.93,
    "is_public": true
  },
  {
    "buoy_id": "41024",
    "name": "Sunset Nearshore, NC (SUN2)",
    "lat": 33.837,
    "lng": -78.477,
    "is_public": true
  },
  {
    "buoy_id": "41025",
    "name": "Diamond Shoals, NC",
    "lat": 35.026,
    "lng": -75.38,
    "is_public": true
  },
  {
    "buoy_id": "41026",
    "name": "Forro",
    "lat": 12,
    "lng": -38,
    "is_public": true
  },
  {
    "buoy_id": "41027",
    "name": "Sunset Mid-Shelf (SUN 3)",
    "lat": 33.302,
    "lng": -78.137,
    "is_public": true
  },
  {
    "buoy_id": "41029",
    "name": "Capers Nearshore, SC (CAP2)",
    "lat": 32.803,
    "lng": -79.624,
    "is_public": true
  },
  {
    "buoy_id": "41030",
    "name": "Capers Mid-Shelf (CAP 3)",
    "lat": 32.52,
    "lng": -79.34,
    "is_public": true
  },
  {
    "buoy_id": "41033",
    "name": "Fripp Nearshore, SC (FRP2)",
    "lat": 32.279,
    "lng": -80.406,
    "is_public": true
  },
  {
    "buoy_id": "41035",
    "name": "Onslow Bay Inner, NC",
    "lat": 34.476,
    "lng": -77.28,
    "is_public": true
  },
  {
    "buoy_id": "41036",
    "name": "Onslow Bay Outer, NC",
    "lat": 34.207,
    "lng": -76.949,
    "is_public": true
  },
  {
    "buoy_id": "41037",
    "name": "Wrightsville Beach Offshore, NC (ILM3)",
    "lat": 33.988,
    "lng": -77.362,
    "is_public": true
  },
  {
    "buoy_id": "41038",
    "name": "Wrightsville Beach Nearshore, NC (ILM2)",
    "lat": 34.141,
    "lng": -77.715,
    "is_public": true
  },
  {
    "buoy_id": "41040",
    "name": "NORTH EQUATORIAL ONE- 470 NM East of Martinique",
    "lat": 14.536,
    "lng": -53.136,
    "is_public": true
  },
  {
    "buoy_id": "41041",
    "name": "NORTH EQUATORIAL TWO - 890 NM East of Martinique",
    "lat": 14.453,
    "lng": -46.327,
    "is_public": true
  },
  {
    "buoy_id": "41043",
    "name": "NE PUERTO RICO - 170 NM NNE of San Juan, PR",
    "lat": 21.09,
    "lng": -64.864,
    "is_public": true
  },
  {
    "buoy_id": "41044",
    "name": "NE ST MARTIN - 330 NM NE St Martin Is",
    "lat": 21.582,
    "lng": -58.63,
    "is_public": true
  },
  {
    "buoy_id": "41046",
    "name": "EAST BAHAMAS - 335 NM East of San Salvador Is,  Bahamas",
    "lat": 23.84,
    "lng": -68.34,
    "is_public": true
  },
  {
    "buoy_id": "41047",
    "name": "NE BAHAMAS - 350 NM ENE of Nassau, Bahamas",
    "lat": 27.557,
    "lng": -71.48,
    "is_public": true
  },
  {
    "buoy_id": "41048",
    "name": "WEST BERMUDA - 240 NM West of Bermuda - Jen's Station",
    "lat": 31.831,
    "lng": -69.573,
    "is_public": true
  },
  {
    "buoy_id": "41049",
    "name": "SOUTH BERMUDA - 300 NM SSE of Bermuda",
    "lat": 27.505,
    "lng": -62.271,
    "is_public": true
  },
  {
    "buoy_id": "41051",
    "name": "South of St. Thomas, VI",
    "lat": 18.257,
    "lng": -65.004,
    "is_public": true
  },
  {
    "buoy_id": "41052",
    "name": "South of St. John, VI",
    "lat": 18.249,
    "lng": -64.763,
    "is_public": true
  },
  {
    "buoy_id": "41053",
    "name": "San Juan, PR",
    "lat": 18.474,
    "lng": -66.099,
    "is_public": true
  },
  {
    "buoy_id": "41056",
    "name": "Vieques Island, PR",
    "lat": 18.261,
    "lng": -65.464,
    "is_public": true
  },
  {
    "buoy_id": "41057",
    "name": "Puerto Plata, DO",
    "lat": 19.833,
    "lng": -70.731,
    "is_public": true
  },
  {
    "buoy_id": "41058",
    "name": "North of St. Thomas, VI",
    "lat": 18.476,
    "lng": -65.157,
    "is_public": true
  },
  {
    "buoy_id": "41060",
    "name": "Woods Hole Northwest Tropical Atlantic Wave Station",
    "lat": 14.824,
    "lng": -51.017,
    "is_public": true
  },
  {
    "buoy_id": "41061",
    "name": "Woods Hole SPURS Wave Station",
    "lat": 24.581,
    "lng": -38,
    "is_public": true
  },
  {
    "buoy_id": "41062",
    "name": "Hatteras Bay (B1)",
    "lat": 35.778,
    "lng": -75.095,
    "is_public": true
  },
  {
    "buoy_id": "41063",
    "name": "Raleigh Bay (B2)",
    "lat": 34.782,
    "lng": -75.941,
    "is_public": true
  },
  {
    "buoy_id": "41064",
    "name": "Onslow Bay Outer, NC (LEJ3)",
    "lat": 34.207,
    "lng": -76.949,
    "is_public": true
  },
  {
    "buoy_id": "41065",
    "name": "Capers Nearshore Waves (CAP2WAVE)",
    "lat": 32.802,
    "lng": -79.619,
    "is_public": true
  },
  {
    "buoy_id": "41066",
    "name": "CHR60",
    "lat": 32.536,
    "lng": -79.656,
    "is_public": true
  },
  {
    "buoy_id": "41067",
    "name": "FRP2WAVE",
    "lat": 32.276,
    "lng": -80.406,
    "is_public": true
  },
  {
    "buoy_id": "41068",
    "name": "Fort Pierce, FL (FTP)",
    "lat": 27.593,
    "lng": -80.189,
    "is_public": true
  },
  {
    "buoy_id": "41069",
    "name": "Ponce de Leon Inlet, FL (PNC)",
    "lat": 29.289,
    "lng": -80.803,
    "is_public": true
  },
  {
    "buoy_id": "41070",
    "name": "Ponce de Leon Inlet Waves (PNCWAVE)",
    "lat": 29.289,
    "lng": -80.803,
    "is_public": true
  },
  {
    "buoy_id": "41076",
    "name": "CHR60WAVE",
    "lat": 32.536,
    "lng": -79.659,
    "is_public": true
  },
  {
    "buoy_id": "41082",
    "name": "OOI Pioneer - Mid-Atlantic Bight Central Surface Mooring",
    "lat": 35.95,
    "lng": -75.125,
    "is_public": true
  },
  {
    "buoy_id": "41083",
    "name": "OOI Pioneer - Mid-Atlantic Bight Southern Surface Mooring",
    "lat": 35.725,
    "lng": -74.853,
    "is_public": true
  },
  {
    "buoy_id": "41096",
    "name": "North of Guadeloupe",
    "lat": 16.533,
    "lng": -61.404,
    "is_public": true
  },
  {
    "buoy_id": "41097",
    "name": "Fort-de-France, Martinique",
    "lat": 14.48,
    "lng": -61.096,
    "is_public": true
  },
  {
    "buoy_id": "41098",
    "name": "North of Martinique",
    "lat": 14.894,
    "lng": -61.113,
    "is_public": true
  },
  {
    "buoy_id": "41100",
    "name": "East of Guadeloupe",
    "lat": 15.9,
    "lng": -57.883,
    "is_public": true
  },
  {
    "buoy_id": "41101",
    "name": "East of Martinique",
    "lat": 14.6,
    "lng": -56.201,
    "is_public": true
  },
  {
    "buoy_id": "41108",
    "name": "Wilmington Harbor, NC - (200)",
    "lat": 33.721,
    "lng": -78.016,
    "is_public": true
  },
  {
    "buoy_id": "41109",
    "name": "New River Inlet, NC - (190)",
    "lat": 34.484,
    "lng": -77.3,
    "is_public": true
  },
  {
    "buoy_id": "41110",
    "name": "Masonboro Inlet, ILM2, NC (150)",
    "lat": 34.142,
    "lng": -77.715,
    "is_public": true
  },
  {
    "buoy_id": "41112",
    "name": "Offshore Fernandina Beach, FL (132)",
    "lat": 30.709,
    "lng": -81.292,
    "is_public": true
  },
  {
    "buoy_id": "41113",
    "name": "Cape Canaveral Nearshore, FL (143)",
    "lat": 28.4,
    "lng": -80.533,
    "is_public": true
  },
  {
    "buoy_id": "41114",
    "name": "Fort Pierce, FL (134)",
    "lat": 27.552,
    "lng": -80.216,
    "is_public": true
  },
  {
    "buoy_id": "41115",
    "name": "Rincon, Puerto Rico (181)",
    "lat": 18.376,
    "lng": -67.28,
    "is_public": true
  },
  {
    "buoy_id": "41116",
    "name": "Oculina Bank North, FL (227)",
    "lat": 28.523,
    "lng": -80.188,
    "is_public": true
  },
  {
    "buoy_id": "41117",
    "name": "St. Augustine, FL (194)",
    "lat": 29.999,
    "lng": -81.079,
    "is_public": true
  },
  {
    "buoy_id": "41118",
    "name": "Chester Shoal, FL (228)",
    "lat": 28.609,
    "lng": -80.59,
    "is_public": true
  },
  {
    "buoy_id": "41119",
    "name": "Sunset Beach, NC - (245)",
    "lat": 33.842,
    "lng": -78.483,
    "is_public": true
  },
  {
    "buoy_id": "41120",
    "name": "Cape Hatteras East, NC (250)",
    "lat": 35.258,
    "lng": -75.285,
    "is_public": true
  },
  {
    "buoy_id": "41121",
    "name": "Arecibo, Puerto Rico (249)",
    "lat": 18.49,
    "lng": -66.701,
    "is_public": true
  },
  {
    "buoy_id": "41122",
    "name": "Hollywood Beach, FL (265)",
    "lat": 26.001,
    "lng": -80.096,
    "is_public": true
  },
  {
    "buoy_id": "41139",
    "name": "41139",
    "lat": 20,
    "lng": -38,
    "is_public": true
  },
  {
    "buoy_id": "41140",
    "name": "Christiansted, St. Croix, Virgin Islands",
    "lat": 17.769,
    "lng": -64.723,
    "is_public": true
  },
  {
    "buoy_id": "41141",
    "name": "Fareham, St. Croix, Virgin Islands",
    "lat": 17.684,
    "lng": -64.635,
    "is_public": true
  },
  {
    "buoy_id": "41159",
    "name": "Onslow Bay Outer, NC (217)",
    "lat": 34.211,
    "lng": -76.944,
    "is_public": true
  },
  {
    "buoy_id": "41193",
    "name": "Puerto Bolivar, Colombia",
    "lat": 12.351,
    "lng": -72.218,
    "is_public": true
  },
  {
    "buoy_id": "41194",
    "name": "Barranquilla, Colombia",
    "lat": 11.161,
    "lng": -74.681,
    "is_public": true
  },
  {
    "buoy_id": "41300",
    "name": "West Indies",
    "lat": 15.85,
    "lng": -57.467,
    "is_public": true
  },
  {
    "buoy_id": "41420",
    "name": "NORTH SANTO DOMINGO - 328NM NNE of Santo Domingo, DO",
    "lat": 23.433,
    "lng": -67.386,
    "is_public": true
  },
  {
    "buoy_id": "41421",
    "name": "NORTH ST THOMAS - 300 NM North of St Thomas, Virgin Is",
    "lat": 23.407,
    "lng": -63.888,
    "is_public": true
  },
  {
    "buoy_id": "41424",
    "name": "EAST CHARLESTON - 370 NM East of Charleston, SC",
    "lat": 33,
    "lng": -72.66,
    "is_public": true
  },
  {
    "buoy_id": "41425",
    "name": "SOUTHWEST BERMUDA - 200 NM SSW of Hamilton, Bermuda",
    "lat": 28.639,
    "lng": -65.774,
    "is_public": true
  },
  {
    "buoy_id": "41554",
    "name": "41554",
    "lat": 18.078,
    "lng": -64.743,
    "is_public": true
  },
  {
    "buoy_id": "41670",
    "name": "41670",
    "lat": 24.71,
    "lng": -28.42,
    "is_public": true
  },
  {
    "buoy_id": "41852",
    "name": "41852",
    "lat": 23.24,
    "lng": -24.02,
    "is_public": true
  },
  {
    "buoy_id": "41904",
    "name": "41904",
    "lat": 3.017,
    "lng": 90.9,
    "is_public": true
  },
  {
    "buoy_id": "41933",
    "name": "41933",
    "lat": 44.95,
    "lng": -12.8,
    "is_public": true
  },
  {
    "buoy_id": "41a46",
    "name": "EAST BAHAMAS - 335 NM East of San Salvador Is, Bahamas backup",
    "lat": 23.838,
    "lng": -68.333,
    "is_public": true
  },
  {
    "buoy_id": "41b41",
    "name": "NORTH EQUATORIAL TWO - 890 NM East of Martinique",
    "lat": 14.329,
    "lng": -46.082,
    "is_public": true
  },
  {
    "buoy_id": "41d20",
    "name": "Adrift from 41420",
    "lat": 23.375,
    "lng": -67.345,
    "is_public": true
  },
  {
    "buoy_id": "41nt0",
    "name": "NTAS - Northwest Tropical Atlantic",
    "lat": 15,
    "lng": -51,
    "is_public": true
  },
  {
    "buoy_id": "41s43",
    "name": "170 NM NNE of San Juan, PR (SCP12)",
    "lat": 21.132,
    "lng": -64.856,
    "is_public": true
  },
  {
    "buoy_id": "41s46",
    "name": "335 NM East of San Salvador Is, Bahamas (SCP10)",
    "lat": 23.866,
    "lng": -68.481,
    "is_public": true
  },
  {
    "buoy_id": "41x01",
    "name": "Adrift from 41001, 150nm E of Cape Hatteras",
    "lat": 34.502,
    "lng": -72.522,
    "is_public": true
  },
  {
    "buoy_id": "41x24",
    "name": "370 NM East of Charleston, SC",
    "lat": 32.93,
    "lng": -72.497,
    "is_public": true
  },
  {
    "buoy_id": "41x46",
    "name": "Adrift buoy from 41046",
    "lat": 23.822,
    "lng": -68.384,
    "is_public": true
  },
  {
    "buoy_id": "42001",
    "name": "MID GULF - 180 nm South of Southwest Pass, LA",
    "lat": 25.926,
    "lng": -89.662,
    "is_public": true
  },
  {
    "buoy_id": "42002",
    "name": "WEST GULF - 207 NM East of Brownsville, TX",
    "lat": 25.95,
    "lng": -93.78,
    "is_public": true
  },
  {
    "buoy_id": "42003",
    "name": "East GULF - 208 NM West of Naples, FL",
    "lat": 25.925,
    "lng": -85.616,
    "is_public": true
  },
  {
    "buoy_id": "42004",
    "name": "42004",
    "lat": 27.5,
    "lng": -85.5,
    "is_public": true
  },
  {
    "buoy_id": "42005",
    "name": "42005",
    "lat": 30,
    "lng": -85.9,
    "is_public": true
  },
  {
    "buoy_id": "42006",
    "name": "42006",
    "lat": 26.5,
    "lng": -96,
    "is_public": true
  },
  {
    "buoy_id": "42007",
    "name": "BILOXI - 22 NM SSE of Biloxi, MS",
    "lat": 30.09,
    "lng": -88.769,
    "is_public": true
  },
  {
    "buoy_id": "42008",
    "name": "42008",
    "lat": 28.7,
    "lng": -95.3,
    "is_public": true
  },
  {
    "buoy_id": "42009",
    "name": "42009",
    "lat": 29.3,
    "lng": -87.5,
    "is_public": true
  },
  {
    "buoy_id": "42010",
    "name": "42010",
    "lat": 29.7,
    "lng": -93.4,
    "is_public": true
  },
  {
    "buoy_id": "42011",
    "name": "42011",
    "lat": 29.7,
    "lng": -93.5,
    "is_public": true
  },
  {
    "buoy_id": "42012",
    "name": "ORANGE BEACH - 44 NM SE of Mobile, AL",
    "lat": 30.06,
    "lng": -87.548,
    "is_public": true
  },
  {
    "buoy_id": "42013",
    "name": "C10 - WFS Central Buoy, 25m Isobath",
    "lat": 27.173,
    "lng": -82.924,
    "is_public": true
  },
  {
    "buoy_id": "42014",
    "name": "C17 - W. FL Sea-Coos",
    "lat": 25.254,
    "lng": -82.22,
    "is_public": true
  },
  {
    "buoy_id": "42015",
    "name": "42015",
    "lat": 30.1,
    "lng": -88.2,
    "is_public": true
  },
  {
    "buoy_id": "42016",
    "name": "42016",
    "lat": 30.2,
    "lng": -88.1,
    "is_public": true
  },
  {
    "buoy_id": "42017",
    "name": "42017",
    "lat": 27.9,
    "lng": -90.9,
    "is_public": true
  },
  {
    "buoy_id": "42018",
    "name": "42018",
    "lat": 30,
    "lng": -88.2,
    "is_public": true
  },
  {
    "buoy_id": "42019",
    "name": "FREEPORT, TX - 60 NM South of Freeport, TX",
    "lat": 27.908,
    "lng": -95.343,
    "is_public": true
  },
  {
    "buoy_id": "42020",
    "name": "CORPUS CHRISTI, TX - 60NM SSE of Corpus Christi, TX",
    "lat": 26.97,
    "lng": -96.679,
    "is_public": true
  },
  {
    "buoy_id": "42021",
    "name": "C14 - Pasco County Buoy, FL",
    "lat": 28.311,
    "lng": -83.306,
    "is_public": true
  },
  {
    "buoy_id": "42022",
    "name": "C12 - WFS Central Buoy, 50m Isobath",
    "lat": 27.505,
    "lng": -83.741,
    "is_public": true
  },
  {
    "buoy_id": "42023",
    "name": "C13 - WFS South Buoy, 50m Isobath",
    "lat": 26.01,
    "lng": -83.086,
    "is_public": true
  },
  {
    "buoy_id": "42024",
    "name": "C16 - W. FL MERHAB",
    "lat": 27.464,
    "lng": -84.219,
    "is_public": true
  },
  {
    "buoy_id": "42025",
    "name": "42025",
    "lat": 24.9,
    "lng": -80.4,
    "is_public": true
  },
  {
    "buoy_id": "42026",
    "name": "C22 - Loop Current Pressure Point Buoy, 70m Isobath",
    "lat": 25.171,
    "lng": -83.475,
    "is_public": true
  },
  {
    "buoy_id": "42031",
    "name": "West End CP, AL",
    "lat": 30.09,
    "lng": -88.212,
    "is_public": true
  },
  {
    "buoy_id": "42035",
    "name": "GALVESTON,TX -  22 NM East of Galveston, TX",
    "lat": 29.235,
    "lng": -94.41,
    "is_public": true
  },
  {
    "buoy_id": "42036",
    "name": "WEST TAMPA  - 112 NM WNW of Tampa, FL",
    "lat": 28.5,
    "lng": -84.505,
    "is_public": true
  },
  {
    "buoy_id": "42037",
    "name": "42037",
    "lat": 24.5,
    "lng": -81.4,
    "is_public": true
  },
  {
    "buoy_id": "42038",
    "name": "North Mid Gulf of America",
    "lat": 27.421,
    "lng": -92.555,
    "is_public": true
  },
  {
    "buoy_id": "42039",
    "name": "PENSACOLA - 115NM SSE of Pensacola, FL",
    "lat": 28.787,
    "lng": -86.007,
    "is_public": true
  },
  {
    "buoy_id": "42040",
    "name": "LUKE OFFSHORE TEST PLATFORM - 63 NM South of Dauphin Island, AL",
    "lat": 29.207,
    "lng": -88.237,
    "is_public": true
  },
  {
    "buoy_id": "42041",
    "name": "North Mid Gulf 110NM South of Grand Isle, LA",
    "lat": 27.504,
    "lng": -90.462,
    "is_public": true
  },
  {
    "buoy_id": "42042",
    "name": "Pascagoula",
    "lat": 29.88,
    "lng": -88.32,
    "is_public": true
  },
  {
    "buoy_id": "42043",
    "name": "TGLO TABS Buoy B",
    "lat": 28.982,
    "lng": -94.899,
    "is_public": true
  },
  {
    "buoy_id": "42044",
    "name": "TGLO TABS Buoy J",
    "lat": 26.191,
    "lng": -97.051,
    "is_public": true
  },
  {
    "buoy_id": "42045",
    "name": "TGLO TABS Buoy K",
    "lat": 26.217,
    "lng": -96.5,
    "is_public": true
  },
  {
    "buoy_id": "42046",
    "name": "GERG Flower Gardens Buoy N",
    "lat": 27.89,
    "lng": -94.037,
    "is_public": true
  },
  {
    "buoy_id": "42047",
    "name": "GERG Flower Gardens Buoy V",
    "lat": 27.897,
    "lng": -93.597,
    "is_public": true
  },
  {
    "buoy_id": "42048",
    "name": "TABS D",
    "lat": 27.939,
    "lng": -96.843,
    "is_public": true
  },
  {
    "buoy_id": "42049",
    "name": "TABS W",
    "lat": 28.351,
    "lng": -96.006,
    "is_public": true
  },
  {
    "buoy_id": "42050",
    "name": "TABS F",
    "lat": 28.842,
    "lng": -94.242,
    "is_public": true
  },
  {
    "buoy_id": "42051",
    "name": "TABS R",
    "lat": 29.635,
    "lng": -93.642,
    "is_public": true
  },
  {
    "buoy_id": "42053",
    "name": "Pascagoula South",
    "lat": 29.55,
    "lng": -88.5,
    "is_public": true
  },
  {
    "buoy_id": "42054",
    "name": "East Gulf",
    "lat": 26,
    "lng": -87.73,
    "is_public": true
  },
  {
    "buoy_id": "42055",
    "name": "BAY OF CAMPECHE - 214 NM NE of Veracruz, MX",
    "lat": 22.14,
    "lng": -94.112,
    "is_public": true
  },
  {
    "buoy_id": "42056",
    "name": "Yucatan Basin - 120 NM ESE of Cozumel, MX",
    "lat": 19.82,
    "lng": -84.98,
    "is_public": true
  },
  {
    "buoy_id": "42057",
    "name": "Western Caribbean - 195 NM WSW of Negril, Jamaica",
    "lat": 16.975,
    "lng": -81.578,
    "is_public": true
  },
  {
    "buoy_id": "42058",
    "name": "Central Caribbean - 210 NM SSE of Kingston, Jamaica",
    "lat": 14.512,
    "lng": -75.153,
    "is_public": true
  },
  {
    "buoy_id": "42059",
    "name": "Eastern Caribbean Sea - 180 NM SSW of Ponce, PR",
    "lat": 15.285,
    "lng": -67.567,
    "is_public": true
  },
  {
    "buoy_id": "42060",
    "name": "Caribbean Valley - 63 NM WSW of Montserrat",
    "lat": 16.434,
    "lng": -63.329,
    "is_public": true
  },
  {
    "buoy_id": "42065",
    "name": "Near 42058 Central Caribbean",
    "lat": 14.926,
    "lng": -75.046,
    "is_public": true
  },
  {
    "buoy_id": "42066",
    "name": "USM-R2",
    "lat": 30.216,
    "lng": -89.183,
    "is_public": true
  },
  {
    "buoy_id": "42067",
    "name": "USM-R1",
    "lat": 30.05,
    "lng": -88.583,
    "is_public": true
  },
  {
    "buoy_id": "42078",
    "name": "Big Pine Key, FL (237)",
    "lat": 24.5,
    "lng": -81.251,
    "is_public": true
  },
  {
    "buoy_id": "42079",
    "name": "Bahia Honda Key, FL (242)",
    "lat": 24.535,
    "lng": -81.242,
    "is_public": true
  },
  {
    "buoy_id": "42080",
    "name": "Offshore Sand Key, FL",
    "lat": 24.396,
    "lng": -81.934,
    "is_public": true
  },
  {
    "buoy_id": "42084",
    "name": "Southwest Pass Entrance W, LA (256)",
    "lat": 28.988,
    "lng": -89.649,
    "is_public": true
  },
  {
    "buoy_id": "42085",
    "name": "Southeast of Ponce, PR",
    "lat": 17.87,
    "lng": -66.537,
    "is_public": true
  },
  {
    "buoy_id": "42087",
    "name": "Buccoo Reef, Buccoo Marine Park, TT",
    "lat": 11.185,
    "lng": -60.848,
    "is_public": true
  },
  {
    "buoy_id": "42088",
    "name": "Angel Reef, TT",
    "lat": 11.301,
    "lng": -60.521,
    "is_public": true
  },
  {
    "buoy_id": "42089",
    "name": "Little Cayman Research Center, CYM",
    "lat": 19.699,
    "lng": -80.061,
    "is_public": true
  },
  {
    "buoy_id": "42090",
    "name": "Catuan Wreck, Boca Chica, DR",
    "lat": 18.432,
    "lng": -69.58,
    "is_public": true
  },
  {
    "buoy_id": "42091",
    "name": "Trinity Shoal, LA (255)",
    "lat": 29.088,
    "lng": -92.505,
    "is_public": true
  },
  {
    "buoy_id": "42092",
    "name": "Aransas Pass Channel Entrance S, TX (252)",
    "lat": 27.64,
    "lng": -97.011,
    "is_public": true
  },
  {
    "buoy_id": "42093",
    "name": "Grand Isle Outer, LA (247)",
    "lat": 29.017,
    "lng": -89.832,
    "is_public": true
  },
  {
    "buoy_id": "42094",
    "name": "Grand Isle, LA (246)",
    "lat": 29.085,
    "lng": -89.907,
    "is_public": true
  },
  {
    "buoy_id": "42095",
    "name": "Satan Shoal, FL (244)",
    "lat": 24.407,
    "lng": -81.968,
    "is_public": true
  },
  {
    "buoy_id": "42097",
    "name": "Pulley Ridge, FL (226)",
    "lat": 25.708,
    "lng": -83.634,
    "is_public": true
  },
  {
    "buoy_id": "42098",
    "name": "Egmont Channel Entrance, FL (214)",
    "lat": 27.59,
    "lng": -82.931,
    "is_public": true
  },
  {
    "buoy_id": "42099",
    "name": "Offshore St. Petersburg, FL (144)",
    "lat": 27.352,
    "lng": -84.275,
    "is_public": true
  },
  {
    "buoy_id": "42354",
    "name": "Chandeleur Island SE, LA (279)",
    "lat": 29.579,
    "lng": -88.643,
    "is_public": true
  },
  {
    "buoy_id": "42357",
    "name": "DISL Sofar Spotter",
    "lat": 30.092,
    "lng": -88.212,
    "is_public": true
  },
  {
    "buoy_id": "42407",
    "name": "SOUTH PUERTO RICO - 230 NM Southwest of San Juan, PR",
    "lat": 15.276,
    "lng": -68.191,
    "is_public": true
  },
  {
    "buoy_id": "42408",
    "name": "EAST GULF of AMERICA - 225NM WNW of Loggerhead Key, FL",
    "lat": 25.2,
    "lng": -87,
    "is_public": true
  },
  {
    "buoy_id": "42409",
    "name": "GULF OF AMERICA - 247 NM South of New Orleans, LA",
    "lat": 25.799,
    "lng": -89.291,
    "is_public": true
  },
  {
    "buoy_id": "42429",
    "name": "DART WAVE GLIDER STATION",
    "lat": 27.401,
    "lng": -85.671,
    "is_public": true
  },
  {
    "buoy_id": "42430",
    "name": "DART Test Station",
    "lat": 27,
    "lng": -86,
    "is_public": true
  },
  {
    "buoy_id": "42501",
    "name": "SD 1042 - 180 nm South of Southwest Pass, LA (Site of 42001)",
    "lat": 25.942,
    "lng": -89.657,
    "is_public": true
  },
  {
    "buoy_id": "42503",
    "name": "SD 1036 - 208 NM West of Naples, FL (Site of 42003)",
    "lat": 25.925,
    "lng": -85.615,
    "is_public": true
  },
  {
    "buoy_id": "42534",
    "name": "Moored Drifter",
    "lat": 29.643,
    "lng": -93.839,
    "is_public": true
  },
  {
    "buoy_id": "42d09",
    "name": "Adrift buoy from 42409",
    "lat": 25.911,
    "lng": -89.264,
    "is_public": true
  },
  {
    "buoy_id": "42x60",
    "name": "Caribbean Valley - 63 NM WSW of Montserrat",
    "lat": 16.406,
    "lng": -63.188,
    "is_public": true
  },
  {
    "buoy_id": "43010",
    "name": "Woods Hole Spurs Wave Station",
    "lat": 10.051,
    "lng": -125.032,
    "is_public": true
  },
  {
    "buoy_id": "43412",
    "name": "SOUTHWEST MANZANILLO - 240 NM SW of Manzanillo, MX",
    "lat": 16.02,
    "lng": -107,
    "is_public": true
  },
  {
    "buoy_id": "43413",
    "name": "SOUTH ACAPULCO - 360NM South of Acapulco, MX",
    "lat": 10.927,
    "lng": -100.012,
    "is_public": true
  },
  {
    "buoy_id": "44001",
    "name": "44001",
    "lat": 38.7,
    "lng": -73.6,
    "is_public": true
  },
  {
    "buoy_id": "44003",
    "name": "44003",
    "lat": 40.8,
    "lng": -68.5,
    "is_public": true
  },
  {
    "buoy_id": "44004",
    "name": "HOTEL 200NM East of Cape May,NJ",
    "lat": 38.484,
    "lng": -70.433,
    "is_public": true
  },
  {
    "buoy_id": "44005",
    "name": "GULF OF MAINE - 78 NM East of Portsmouth, NH",
    "lat": 43.201,
    "lng": -69.127,
    "is_public": true
  },
  {
    "buoy_id": "44006",
    "name": "44006",
    "lat": 36.3,
    "lng": -75.4,
    "is_public": true
  },
  {
    "buoy_id": "44007",
    "name": "PORTLAND - 12 NM Southeast of Portland,ME",
    "lat": 43.525,
    "lng": -70.14,
    "is_public": true
  },
  {
    "buoy_id": "44008",
    "name": "NANTUCKET 54 NM Southeast of Nantucket",
    "lat": 40.5,
    "lng": -69.254,
    "is_public": true
  },
  {
    "buoy_id": "44009",
    "name": "DELAWARE BAY 26 NM Southeast of Cape May, NJ",
    "lat": 38.46,
    "lng": -74.692,
    "is_public": true
  },
  {
    "buoy_id": "44010",
    "name": "44010",
    "lat": 36.9,
    "lng": -75.7,
    "is_public": true
  },
  {
    "buoy_id": "44011",
    "name": "GEORGES BANK 170 NM East of Hyannis, MA",
    "lat": 41.088,
    "lng": -66.546,
    "is_public": true
  },
  {
    "buoy_id": "44012",
    "name": "44012",
    "lat": 38.8,
    "lng": -74.6,
    "is_public": true
  },
  {
    "buoy_id": "44013",
    "name": "BOSTON 16 NM East of Boston, MA",
    "lat": 42.346,
    "lng": -70.651,
    "is_public": true
  },
  {
    "buoy_id": "44014",
    "name": "VIRGINIA BEACH 64 NM East of Virginia Beach, VA",
    "lat": 36.603,
    "lng": -74.837,
    "is_public": true
  },
  {
    "buoy_id": "44015",
    "name": "44015",
    "lat": 37.5,
    "lng": -73.4,
    "is_public": true
  },
  {
    "buoy_id": "44017",
    "name": "MONTAUK POINT - 23 NM SSW of Montauk Point, NY",
    "lat": 40.693,
    "lng": -72.049,
    "is_public": true
  },
  {
    "buoy_id": "44018",
    "name": "CAPE COD - 9 NM North of Provincetown, MA",
    "lat": 42.203,
    "lng": -70.154,
    "is_public": true
  },
  {
    "buoy_id": "44019",
    "name": "44019",
    "lat": 36.4,
    "lng": -75.2,
    "is_public": true
  },
  {
    "buoy_id": "44020",
    "name": "NANTUCKET SOUND",
    "lat": 41.497,
    "lng": -70.283,
    "is_public": true
  },
  {
    "buoy_id": "44021",
    "name": "Buoy D - New Meadows River",
    "lat": 43.762,
    "lng": -69.988,
    "is_public": true
  },
  {
    "buoy_id": "44022",
    "name": "Execution Rocks",
    "lat": 40.883,
    "lng": -73.728,
    "is_public": true
  },
  {
    "buoy_id": "44023",
    "name": "44023",
    "lat": 37.5,
    "lng": -74.4,
    "is_public": true
  },
  {
    "buoy_id": "44024",
    "name": "Buoy N01 - Northeast Channel",
    "lat": 42.325,
    "lng": -65.909,
    "is_public": true
  },
  {
    "buoy_id": "44025",
    "name": "LONG ISLAND - 30 NM South of Islip, NY",
    "lat": 40.258,
    "lng": -73.175,
    "is_public": true
  },
  {
    "buoy_id": "44026",
    "name": "44026",
    "lat": 36,
    "lng": -73.5,
    "is_public": true
  },
  {
    "buoy_id": "44027",
    "name": "Jonesport, ME - 20 NM SE of Jonesport, ME",
    "lat": 44.284,
    "lng": -67.301,
    "is_public": true
  },
  {
    "buoy_id": "44028",
    "name": "Buzzard's Bay",
    "lat": 41.4,
    "lng": -71.08,
    "is_public": true
  },
  {
    "buoy_id": "44029",
    "name": "Buoy A01 - Massachusetts Bay",
    "lat": 42.523,
    "lng": -70.566,
    "is_public": true
  },
  {
    "buoy_id": "44030",
    "name": "Buoy B01 - Western Maine Shelf",
    "lat": 43.179,
    "lng": -70.426,
    "is_public": true
  },
  {
    "buoy_id": "44031",
    "name": "Buoy C0201 - Casco Bay",
    "lat": 43.57,
    "lng": -70.06,
    "is_public": true
  },
  {
    "buoy_id": "44032",
    "name": "Buoy E01 - Central Maine Shelf",
    "lat": 43.715,
    "lng": -69.355,
    "is_public": true
  },
  {
    "buoy_id": "44033",
    "name": "Buoy F01 - Penobscot Bay",
    "lat": 44.055,
    "lng": -68.996,
    "is_public": true
  },
  {
    "buoy_id": "44034",
    "name": "Buoy I01 - Eastern Maine Shelf",
    "lat": 44.103,
    "lng": -68.112,
    "is_public": true
  },
  {
    "buoy_id": "44035",
    "name": "Buoy J0201 - Cobscook Bay",
    "lat": 44.89,
    "lng": -67.02,
    "is_public": true
  },
  {
    "buoy_id": "44036",
    "name": "Buoy K0102 - Saint John",
    "lat": 45.2,
    "lng": -66.02,
    "is_public": true
  },
  {
    "buoy_id": "44037",
    "name": "Buoy M01 - Jordan Basin",
    "lat": 43.497,
    "lng": -67.876,
    "is_public": true
  },
  {
    "buoy_id": "44038",
    "name": "Buoy L0102 - Scotian Shelf",
    "lat": 43.633,
    "lng": -66.55,
    "is_public": true
  },
  {
    "buoy_id": "44039",
    "name": "Central Long Island Sound",
    "lat": 41.138,
    "lng": -72.655,
    "is_public": true
  },
  {
    "buoy_id": "44040",
    "name": "Western Long Island Sound",
    "lat": 40.956,
    "lng": -73.58,
    "is_public": true
  },
  {
    "buoy_id": "44041",
    "name": "Jamestown, VA",
    "lat": 37.211,
    "lng": -76.787,
    "is_public": true
  },
  {
    "buoy_id": "44042",
    "name": "Potomac, MD",
    "lat": 38.033,
    "lng": -76.335,
    "is_public": true
  },
  {
    "buoy_id": "44043",
    "name": "Patapsco, MD",
    "lat": 39.152,
    "lng": -76.391,
    "is_public": true
  },
  {
    "buoy_id": "44044",
    "name": "Patuxent River Buoy",
    "lat": 38.389,
    "lng": -76.526,
    "is_public": true
  },
  {
    "buoy_id": "44052",
    "name": "Goodwin Islands",
    "lat": 37.236,
    "lng": -76.399,
    "is_public": true
  },
  {
    "buoy_id": "44053",
    "name": "Gloucester Point",
    "lat": 37.244,
    "lng": -76.5,
    "is_public": true
  },
  {
    "buoy_id": "44054",
    "name": "Lower Delaware Bay Buoy",
    "lat": 38.883,
    "lng": -75.183,
    "is_public": true
  },
  {
    "buoy_id": "44055",
    "name": "Central Delaware Bay",
    "lat": 39.122,
    "lng": -75.256,
    "is_public": true
  },
  {
    "buoy_id": "44056",
    "name": "Duck FRF, NC",
    "lat": 36.2,
    "lng": -75.714,
    "is_public": true
  },
  {
    "buoy_id": "44057",
    "name": "Susquehanna, MD",
    "lat": 39.54,
    "lng": -76.074,
    "is_public": true
  },
  {
    "buoy_id": "44058",
    "name": "Stingray Point, VA",
    "lat": 37.567,
    "lng": -76.257,
    "is_public": true
  },
  {
    "buoy_id": "44059",
    "name": "Norfolk, VA",
    "lat": 36.846,
    "lng": -76.298,
    "is_public": true
  },
  {
    "buoy_id": "44060",
    "name": "Eastern Long Island Sound",
    "lat": 41.263,
    "lng": -72.067,
    "is_public": true
  },
  {
    "buoy_id": "44061",
    "name": "Upper Potomac, MD",
    "lat": 38.788,
    "lng": -77.036,
    "is_public": true
  },
  {
    "buoy_id": "44062",
    "name": "Gooses Reef, MD",
    "lat": 38.556,
    "lng": -76.415,
    "is_public": true
  },
  {
    "buoy_id": "44063",
    "name": "Annapolis, MD",
    "lat": 38.963,
    "lng": -76.448,
    "is_public": true
  },
  {
    "buoy_id": "44064",
    "name": "First Landing, VA",
    "lat": 36.998,
    "lng": -76.087,
    "is_public": true
  },
  {
    "buoy_id": "44065",
    "name": "New York Harbor Entrance - 15 NM SE of Breezy Point , NY",
    "lat": 40.368,
    "lng": -73.701,
    "is_public": true
  },
  {
    "buoy_id": "44066",
    "name": "Texas Tower #4 - 75 NM East of Long Beach, NJ",
    "lat": 39.618,
    "lng": -72.644,
    "is_public": true
  },
  {
    "buoy_id": "44067",
    "name": "Potomac River, Near HWY 301",
    "lat": 38.368,
    "lng": -76.996,
    "is_public": true
  },
  {
    "buoy_id": "44068",
    "name": "VCU Rice Rivers Center",
    "lat": 37.314,
    "lng": -77.191,
    "is_public": true
  },
  {
    "buoy_id": "44069",
    "name": "Great South Bay",
    "lat": 40.699,
    "lng": -73.087,
    "is_public": true
  },
  {
    "buoy_id": "44070",
    "name": "Buzzards Bay MA. Offshore",
    "lat": 41.392,
    "lng": -71.004,
    "is_public": true
  },
  {
    "buoy_id": "44071",
    "name": "Chesapeake Light Va.",
    "lat": 36.906,
    "lng": -75.691,
    "is_public": true
  },
  {
    "buoy_id": "44072",
    "name": "York Spit, VA",
    "lat": 37.201,
    "lng": -76.266,
    "is_public": true
  },
  {
    "buoy_id": "44073",
    "name": "CO2 Gulf of Maine Buoy",
    "lat": 43.02,
    "lng": -70.54,
    "is_public": true
  },
  {
    "buoy_id": "44075",
    "name": "OOI Pioneer Inshore Surface Mooring",
    "lat": 40.363,
    "lng": -70.883,
    "is_public": true
  },
  {
    "buoy_id": "44076",
    "name": "OOI Pioneer Central Surface Mooring",
    "lat": 40.137,
    "lng": -70.775,
    "is_public": true
  },
  {
    "buoy_id": "44077",
    "name": "OOI Pioneer Offshore Surface Mooring",
    "lat": 39.94,
    "lng": -70.883,
    "is_public": true
  },
  {
    "buoy_id": "44078",
    "name": "OOI Irminger Sea Surface Mooring",
    "lat": 59.94,
    "lng": -39.52,
    "is_public": true
  },
  {
    "buoy_id": "44079",
    "name": "OOI Pioneer - Mid-Atlantic Bight Northern Surface Mooring",
    "lat": 36.175,
    "lng": -74.827,
    "is_public": true
  },
  {
    "buoy_id": "44080",
    "name": "Baltimore",
    "lat": 39.223,
    "lng": -76.528,
    "is_public": true
  },
  {
    "buoy_id": "44084",
    "name": "Bethany Beach, DE (263)",
    "lat": 38.537,
    "lng": -75.044,
    "is_public": true
  },
  {
    "buoy_id": "44085",
    "name": "Buzzards Bay, MA (260)",
    "lat": 41.387,
    "lng": -71.032,
    "is_public": true
  },
  {
    "buoy_id": "44086",
    "name": "Nags Head, NC (243)",
    "lat": 36.001,
    "lng": -75.421,
    "is_public": true
  },
  {
    "buoy_id": "44087",
    "name": "Thimble Shoal, VA (240)",
    "lat": 37.044,
    "lng": -76.13,
    "is_public": true
  },
  {
    "buoy_id": "44088",
    "name": "Virginia Beach Offshore, VA (171)",
    "lat": 36.612,
    "lng": -74.839,
    "is_public": true
  },
  {
    "buoy_id": "44089",
    "name": "Wallops Island, VA (224)",
    "lat": 37.756,
    "lng": -75.325,
    "is_public": true
  },
  {
    "buoy_id": "44090",
    "name": "Cape Cod Bay, MA (221)",
    "lat": 41.84,
    "lng": -70.329,
    "is_public": true
  },
  {
    "buoy_id": "44091",
    "name": "Barnegat, NJ (209)",
    "lat": 39.772,
    "lng": -73.769,
    "is_public": true
  },
  {
    "buoy_id": "44092",
    "name": "Isle of Shoals, NH (211)",
    "lat": 42.942,
    "lng": -70.632,
    "is_public": true
  },
  {
    "buoy_id": "44093",
    "name": "Offshore Wind Energy Area, VA (210)",
    "lat": 36.872,
    "lng": -75.492,
    "is_public": true
  },
  {
    "buoy_id": "44094",
    "name": "Fire Island Nearshore, NY (207)",
    "lat": 40.585,
    "lng": -73.106,
    "is_public": true
  },
  {
    "buoy_id": "44095",
    "name": "Oregon Inlet, NC (192)",
    "lat": 35.75,
    "lng": -75.33,
    "is_public": true
  },
  {
    "buoy_id": "44096",
    "name": "Cape Charles, VA (186)",
    "lat": 37.023,
    "lng": -75.809,
    "is_public": true
  },
  {
    "buoy_id": "44097",
    "name": "Block Island, RI  (154)",
    "lat": 40.967,
    "lng": -71.124,
    "is_public": true
  },
  {
    "buoy_id": "44098",
    "name": "Jeffrey's Ledge, NH (160)",
    "lat": 42.8,
    "lng": -70.169,
    "is_public": true
  },
  {
    "buoy_id": "44099",
    "name": "Cape Henry, VA (147)",
    "lat": 36.915,
    "lng": -75.722,
    "is_public": true
  },
  {
    "buoy_id": "44100",
    "name": "Duck FRF 26m, NC (430)",
    "lat": 36.258,
    "lng": -75.593,
    "is_public": true
  },
  {
    "buoy_id": "44137",
    "name": "East Scotia Slope",
    "lat": 42.26,
    "lng": -62.03,
    "is_public": true
  },
  {
    "buoy_id": "44138",
    "name": "SW Grand Banks",
    "lat": 44.25,
    "lng": -53.63,
    "is_public": true
  },
  {
    "buoy_id": "44139",
    "name": "Banqureau Banks",
    "lat": 44.24,
    "lng": -57.1,
    "is_public": true
  },
  {
    "buoy_id": "44140",
    "name": "Tail of the Bank",
    "lat": 42.87,
    "lng": -51.47,
    "is_public": true
  },
  {
    "buoy_id": "44141",
    "name": "Laurentian Fan",
    "lat": 42.99,
    "lng": -57.96,
    "is_public": true
  },
  {
    "buoy_id": "44142",
    "name": "La Have Bank",
    "lat": 42.5,
    "lng": -64.033,
    "is_public": true
  },
  {
    "buoy_id": "44150",
    "name": "La Have Bank",
    "lat": 42.5,
    "lng": -64.02,
    "is_public": true
  },
  {
    "buoy_id": "44172",
    "name": "Halifax Harbor, NS, Canada - 176",
    "lat": 44.5,
    "lng": -63.408,
    "is_public": true
  },
  {
    "buoy_id": "44174",
    "name": "Anticosti",
    "lat": 49.075,
    "lng": -60.822,
    "is_public": true
  },
  {
    "buoy_id": "44175",
    "name": "iles de la Madeleine",
    "lat": 46.877,
    "lng": -62,
    "is_public": true
  },
  {
    "buoy_id": "44176",
    "name": "Point Escuminac",
    "lat": 47.535,
    "lng": -64.527,
    "is_public": true
  },
  {
    "buoy_id": "44235",
    "name": "South Ramea Island, Newfoundland (170)",
    "lat": 47.263,
    "lng": -57.341,
    "is_public": true
  },
  {
    "buoy_id": "44251",
    "name": "Nickerson Bank",
    "lat": 46.44,
    "lng": -53.39,
    "is_public": true
  },
  {
    "buoy_id": "44255",
    "name": "NE Burgeo Bank",
    "lat": 47.27,
    "lng": -57.34,
    "is_public": true
  },
  {
    "buoy_id": "44258",
    "name": "Halifax Harbour",
    "lat": 44.5,
    "lng": -63.4,
    "is_public": true
  },
  {
    "buoy_id": "44401",
    "name": "NORTHEAST CASTLE ROCK SEAMOUNT - 620NM South of St John's Newfoundland, CN",
    "lat": 37.592,
    "lng": -50.03,
    "is_public": true
  },
  {
    "buoy_id": "44402",
    "name": "SOUTHEAST BLOCK CANYON - 130 NM SE of Fire Island, NY",
    "lat": 39.314,
    "lng": -70.717,
    "is_public": true
  },
  {
    "buoy_id": "44403",
    "name": "SABLE ISLAND BANK - 437 NM E of Boston, MA",
    "lat": 41.928,
    "lng": -61.664,
    "is_public": true
  },
  {
    "buoy_id": "44488",
    "name": "East of Chedabucto Bay",
    "lat": 45.44,
    "lng": -60.95,
    "is_public": true
  },
  {
    "buoy_id": "44489",
    "name": "West Chedabucto Bay",
    "lat": 45.49,
    "lng": -61.14,
    "is_public": true
  },
  {
    "buoy_id": "44490",
    "name": "West Bay of Fundy",
    "lat": 44.66,
    "lng": -66.37,
    "is_public": true
  },
  {
    "buoy_id": "44585",
    "name": "Drifting Buoy",
    "lat": 43.354,
    "lng": -67.635,
    "is_public": true
  },
  {
    "buoy_id": "44d03",
    "name": "Adrift buoy from 44403",
    "lat": 41.91,
    "lng": -61.643,
    "is_public": true
  },
  {
    "buoy_id": "44t14",
    "name": "VIRGINIA BEACH 64 NM East of Virginia Beach, VA",
    "lat": 36.611,
    "lng": -74.847,
    "is_public": true
  },
  {
    "buoy_id": "45001",
    "name": "MID SUPERIOR- 60 NM North Northeast Hancock, MI",
    "lat": 48.061,
    "lng": -87.793,
    "is_public": true
  },
  {
    "buoy_id": "45002",
    "name": "NORTH MICHIGAN- Halfway between North Manitou and Washington Islands.",
    "lat": 45.344,
    "lng": -86.411,
    "is_public": true
  },
  {
    "buoy_id": "45003",
    "name": "NORTH HURON - 32NM Northeast of Alpena, MI",
    "lat": 45.351,
    "lng": -82.84,
    "is_public": true
  },
  {
    "buoy_id": "45004",
    "name": "EAST SUPERIOR -70 NM NE Marquette, MI",
    "lat": 47.585,
    "lng": -86.585,
    "is_public": true
  },
  {
    "buoy_id": "45005",
    "name": "WEST ERIE - 16 NM NW of Lorain, OH",
    "lat": 41.677,
    "lng": -82.398,
    "is_public": true
  },
  {
    "buoy_id": "45006",
    "name": "WEST SUPERIOR - 30NM NE of Outer Island, WI",
    "lat": 47.335,
    "lng": -89.793,
    "is_public": true
  },
  {
    "buoy_id": "45007",
    "name": "SOUTH MICHIGAN - 43NM East Southeast of Milwaukee, WI",
    "lat": 42.674,
    "lng": -87.026,
    "is_public": true
  },
  {
    "buoy_id": "45008",
    "name": "SOUTH HURON - 43NM East of Oscoda, MI",
    "lat": 44.283,
    "lng": -82.416,
    "is_public": true
  },
  {
    "buoy_id": "45009",
    "name": "45009",
    "lat": 41.6,
    "lng": -82,
    "is_public": true
  },
  {
    "buoy_id": "45010",
    "name": "45010",
    "lat": 43,
    "lng": -87.8,
    "is_public": true
  },
  {
    "buoy_id": "45011",
    "name": "Grand Haven Michigan",
    "lat": 43.02,
    "lng": -86.27,
    "is_public": true
  },
  {
    "buoy_id": "45012",
    "name": "EAST Lake Ontario  - 20NM North Northeast of Rochester, NY",
    "lat": 43.621,
    "lng": -77.401,
    "is_public": true
  },
  {
    "buoy_id": "45013",
    "name": "ATW20 - Atwater Park, WI",
    "lat": 43.1,
    "lng": -87.85,
    "is_public": true
  },
  {
    "buoy_id": "45014",
    "name": "GB17 - South Green Bay, WI",
    "lat": 44.794,
    "lng": -87.758,
    "is_public": true
  },
  {
    "buoy_id": "45015",
    "name": "Calumet Beach, Chicago, IL",
    "lat": 41.714,
    "lng": -87.527,
    "is_public": true
  },
  {
    "buoy_id": "45016",
    "name": "Sixth-third St. Beach, Chicago, IL",
    "lat": 41.783,
    "lng": -87.573,
    "is_public": true
  },
  {
    "buoy_id": "45017",
    "name": "Oak St. Beach, Chicago, IL",
    "lat": 41.903,
    "lng": -87.622,
    "is_public": true
  },
  {
    "buoy_id": "45018",
    "name": "Montrose Ave. Beach, Chicago, IL",
    "lat": 41.968,
    "lng": -87.637,
    "is_public": true
  },
  {
    "buoy_id": "45019",
    "name": "Foster Ave. Beach, Chicago, IL",
    "lat": 41.979,
    "lng": -87.649,
    "is_public": true
  },
  {
    "buoy_id": "45020",
    "name": "Grand Traverse Bay South Buoy, MI",
    "lat": 44.789,
    "lng": -85.604,
    "is_public": true
  },
  {
    "buoy_id": "45021",
    "name": "Traverse Bay #3, MI",
    "lat": 45.048,
    "lng": -85.493,
    "is_public": true
  },
  {
    "buoy_id": "45022",
    "name": "Little Traverse Bay Buoy, MI",
    "lat": 45.404,
    "lng": -85.088,
    "is_public": true
  },
  {
    "buoy_id": "45023",
    "name": "North Entry Buoy, North Keweenaw Peninsula, MI",
    "lat": 47.27,
    "lng": -88.607,
    "is_public": true
  },
  {
    "buoy_id": "45024",
    "name": "Ludington Buoy, MI",
    "lat": 43.977,
    "lng": -86.56,
    "is_public": true
  },
  {
    "buoy_id": "45025",
    "name": "South Entry Buoy, South Keweenaw Peninsula, MI",
    "lat": 46.969,
    "lng": -88.398,
    "is_public": true
  },
  {
    "buoy_id": "45026",
    "name": "Cook Nuclear Plant Buoy, Stevensville, MI",
    "lat": 41.982,
    "lng": -86.619,
    "is_public": true
  },
  {
    "buoy_id": "45027",
    "name": "McQuade Harbor Nearshore, MN",
    "lat": 46.86,
    "lng": -91.93,
    "is_public": true
  },
  {
    "buoy_id": "45028",
    "name": "Western Lake Superior",
    "lat": 46.814,
    "lng": -91.829,
    "is_public": true
  },
  {
    "buoy_id": "45029",
    "name": "Holland Buoy, MI",
    "lat": 42.9,
    "lng": -86.272,
    "is_public": true
  },
  {
    "buoy_id": "45132",
    "name": "Port Stanley",
    "lat": 42.46,
    "lng": -81.22,
    "is_public": true
  },
  {
    "buoy_id": "45135",
    "name": "Prince Edward Pt",
    "lat": 43.78,
    "lng": -76.87,
    "is_public": true
  },
  {
    "buoy_id": "45136",
    "name": "Slate Island",
    "lat": 48.54,
    "lng": -86.95,
    "is_public": true
  },
  {
    "buoy_id": "45137",
    "name": "Georgian Bay",
    "lat": 45.54,
    "lng": -81.02,
    "is_public": true
  },
  {
    "buoy_id": "45138",
    "name": "Mont Louis",
    "lat": 49.54,
    "lng": -65.71,
    "is_public": true
  },
  {
    "buoy_id": "45139",
    "name": "West Lake Ontario - Grimsby",
    "lat": 43.25,
    "lng": -79.53,
    "is_public": true
  },
  {
    "buoy_id": "45140",
    "name": "Lake Winnipeg S. Basin",
    "lat": 50.8,
    "lng": -96.73,
    "is_public": true
  },
  {
    "buoy_id": "45141",
    "name": "Great Slave Lake",
    "lat": 61.18,
    "lng": -115.31,
    "is_public": true
  },
  {
    "buoy_id": "45142",
    "name": "Port Colborne",
    "lat": 42.74,
    "lng": -79.29,
    "is_public": true
  },
  {
    "buoy_id": "45143",
    "name": "South Georgian Bay",
    "lat": 44.94,
    "lng": -80.627,
    "is_public": true
  },
  {
    "buoy_id": "45144",
    "name": "Lake Winnipeg North",
    "lat": 53.23,
    "lng": -98.29,
    "is_public": true
  },
  {
    "buoy_id": "45145",
    "name": "Lake Winnipeg Narrows",
    "lat": 51.87,
    "lng": -96.97,
    "is_public": true
  },
  {
    "buoy_id": "45147",
    "name": "Lake St Clair",
    "lat": 42.43,
    "lng": -82.68,
    "is_public": true
  },
  {
    "buoy_id": "45148",
    "name": "Lake of the Woods",
    "lat": 49.65,
    "lng": -94.5,
    "is_public": true
  },
  {
    "buoy_id": "45149",
    "name": "Southern Lake Huron",
    "lat": 43.54,
    "lng": -82.08,
    "is_public": true
  },
  {
    "buoy_id": "45150",
    "name": "Great Slave Lake, North Arm",
    "lat": 61.98,
    "lng": -114.13,
    "is_public": true
  },
  {
    "buoy_id": "45151",
    "name": "Lake Simcoe",
    "lat": 44.5,
    "lng": -79.37,
    "is_public": true
  },
  {
    "buoy_id": "45152",
    "name": "Lake Nipissing",
    "lat": 46.23,
    "lng": -79.72,
    "is_public": true
  },
  {
    "buoy_id": "45154",
    "name": "North Channel East",
    "lat": 46.05,
    "lng": -82.64,
    "is_public": true
  },
  {
    "buoy_id": "45155",
    "name": "Pan Am Games",
    "lat": 43.59,
    "lng": -79.39,
    "is_public": true
  },
  {
    "buoy_id": "45158",
    "name": "Hudson Bay",
    "lat": 59,
    "lng": -94,
    "is_public": true
  },
  {
    "buoy_id": "45159",
    "name": "NW Lake Ontario Ajax",
    "lat": 43.77,
    "lng": -78.98,
    "is_public": true
  },
  {
    "buoy_id": "45160",
    "name": "16-Mile Creek",
    "lat": 43.417,
    "lng": -79.633,
    "is_public": true
  },
  {
    "buoy_id": "45161",
    "name": "Muskegon Buoy, MI",
    "lat": 43.185,
    "lng": -86.352,
    "is_public": true
  },
  {
    "buoy_id": "45162",
    "name": "Thunder Bay Buoy, Alpena, MI",
    "lat": 44.988,
    "lng": -83.269,
    "is_public": true
  },
  {
    "buoy_id": "45163",
    "name": "Saginaw Bay Buoy, MI",
    "lat": 43.983,
    "lng": -83.599,
    "is_public": true
  },
  {
    "buoy_id": "45164",
    "name": "Cleveland Buoy, OH",
    "lat": 41.748,
    "lng": -81.698,
    "is_public": true
  },
  {
    "buoy_id": "45165",
    "name": "Toledo Water Intake Buoy, Oregon, OH",
    "lat": 41.702,
    "lng": -83.261,
    "is_public": true
  },
  {
    "buoy_id": "45166",
    "name": "Lake Champlain - Inland Sea",
    "lat": 44.785,
    "lng": -73.258,
    "is_public": true
  },
  {
    "buoy_id": "45167",
    "name": "Erie Nearshore Buoy, Erie, PA",
    "lat": 42.185,
    "lng": -80.135,
    "is_public": true
  },
  {
    "buoy_id": "45168",
    "name": "South Haven Buoy, MI",
    "lat": 42.397,
    "lng": -86.331,
    "is_public": true
  },
  {
    "buoy_id": "45169",
    "name": "Lakewood Buoy, OH",
    "lat": 41.615,
    "lng": -81.821,
    "is_public": true
  },
  {
    "buoy_id": "45170",
    "name": "Michigan City Buoy, IN",
    "lat": 41.755,
    "lng": -86.968,
    "is_public": true
  },
  {
    "buoy_id": "45171",
    "name": "Granite Island Buoy, Granite Island, MI",
    "lat": 46.724,
    "lng": -87.411,
    "is_public": true
  },
  {
    "buoy_id": "45172",
    "name": "Grand Marais Buoy, Grand Marais, MI",
    "lat": 46.74,
    "lng": -85.98,
    "is_public": true
  },
  {
    "buoy_id": "45173",
    "name": "Munising Buoy, Munising, MI",
    "lat": 46.573,
    "lng": -86.572,
    "is_public": true
  },
  {
    "buoy_id": "45174",
    "name": "Wilmette Buoy, IL",
    "lat": 42.135,
    "lng": -87.655,
    "is_public": true
  },
  {
    "buoy_id": "45175",
    "name": "Mackinac Straits West, Mackinaw City, MI",
    "lat": 45.825,
    "lng": -84.772,
    "is_public": true
  },
  {
    "buoy_id": "45176",
    "name": "Cleveland Intake Crib Buoy, OH",
    "lat": 41.55,
    "lng": -81.765,
    "is_public": true
  },
  {
    "buoy_id": "45177",
    "name": "Ohio St. Beach, Chicago, IL",
    "lat": 41.894,
    "lng": -87.613,
    "is_public": true
  },
  {
    "buoy_id": "45178",
    "name": "1 NM SE of Valcour Island, NY",
    "lat": 44.603,
    "lng": -73.394,
    "is_public": true
  },
  {
    "buoy_id": "45179",
    "name": "Stannard Rock Buoy",
    "lat": 47.195,
    "lng": -87.224,
    "is_public": true
  },
  {
    "buoy_id": "45180",
    "name": "Isle of Royale East, MI (230)",
    "lat": 48.034,
    "lng": -87.73,
    "is_public": true
  },
  {
    "buoy_id": "45183",
    "name": "Sleeping Bear Dunes",
    "lat": 44.982,
    "lng": -85.831,
    "is_public": true
  },
  {
    "buoy_id": "45184",
    "name": "Green Bay East Buoy",
    "lat": 44.55,
    "lng": -87.959,
    "is_public": true
  },
  {
    "buoy_id": "45185",
    "name": "Green Bay West Buoy",
    "lat": 44.577,
    "lng": -87.987,
    "is_public": true
  },
  {
    "buoy_id": "45186",
    "name": "Waukegan Buoy, IL",
    "lat": 42.368,
    "lng": -87.795,
    "is_public": true
  },
  {
    "buoy_id": "45187",
    "name": "Winthrop Harbor Buoy, IL",
    "lat": 42.491,
    "lng": -87.779,
    "is_public": true
  },
  {
    "buoy_id": "45188",
    "name": "Champlain Bridge Buoy",
    "lat": 44.094,
    "lng": -73.423,
    "is_public": true
  },
  {
    "buoy_id": "45194",
    "name": "McGulpin Point North, MI (253)",
    "lat": 45.804,
    "lng": -84.792,
    "is_public": true
  },
  {
    "buoy_id": "45195",
    "name": "Schuyler Reef, NY (251)",
    "lat": 44.488,
    "lng": -73.339,
    "is_public": true
  },
  {
    "buoy_id": "45196",
    "name": "Rocky River, OH",
    "lat": 41.521,
    "lng": -81.88,
    "is_public": true
  },
  {
    "buoy_id": "45197",
    "name": "Euclid, OH",
    "lat": 41.619,
    "lng": -81.617,
    "is_public": true
  },
  {
    "buoy_id": "45198",
    "name": "Chicago Buoy",
    "lat": 41.892,
    "lng": -87.563,
    "is_public": true
  },
  {
    "buoy_id": "45199",
    "name": "Salmon Unlimited Wisconsin",
    "lat": 42.702,
    "lng": -87.647,
    "is_public": true
  },
  {
    "buoy_id": "45200",
    "name": "Maumee Bay Buoy",
    "lat": 41.724,
    "lng": -83.37,
    "is_public": true
  },
  {
    "buoy_id": "45201",
    "name": "Erie Islands Buoy",
    "lat": 41.601,
    "lng": -82.781,
    "is_public": true
  },
  {
    "buoy_id": "45202",
    "name": "Port Clinton Buoy",
    "lat": 41.532,
    "lng": -82.941,
    "is_public": true
  },
  {
    "buoy_id": "45203",
    "name": "Huron Buoy",
    "lat": 41.393,
    "lng": -82.512,
    "is_public": true
  },
  {
    "buoy_id": "45204",
    "name": "Sheffield Buoy",
    "lat": 41.508,
    "lng": -82.115,
    "is_public": true
  },
  {
    "buoy_id": "45205",
    "name": "Edgewater Beach Buoy",
    "lat": 41.501,
    "lng": -81.748,
    "is_public": true
  },
  {
    "buoy_id": "45206",
    "name": "Euclid Beach Buoy",
    "lat": 41.585,
    "lng": -81.583,
    "is_public": true
  },
  {
    "buoy_id": "45207",
    "name": "Fairport Harbor Buoy",
    "lat": 41.725,
    "lng": -81.37,
    "is_public": true
  },
  {
    "buoy_id": "45208",
    "name": "Ashtabula Buoy",
    "lat": 41.908,
    "lng": -80.813,
    "is_public": true
  },
  {
    "buoy_id": "45209",
    "name": "Lakeport Buoy, MI",
    "lat": 43.129,
    "lng": -82.391,
    "is_public": true
  },
  {
    "buoy_id": "45210",
    "name": "Rawley Point East, WI (269)",
    "lat": 44.055,
    "lng": -87.05,
    "is_public": true
  },
  {
    "buoy_id": "45211",
    "name": "Grand Island North, MI (268)",
    "lat": 46.973,
    "lng": -86.568,
    "is_public": true
  },
  {
    "buoy_id": "45212",
    "name": "North Huron Spotter",
    "lat": 45.351,
    "lng": -82.84,
    "is_public": true
  },
  {
    "buoy_id": "45213",
    "name": "East Superior Spotter",
    "lat": 47.585,
    "lng": -86.585,
    "is_public": true
  },
  {
    "buoy_id": "45214",
    "name": "South Michigan Spotter",
    "lat": 42.674,
    "lng": -87.026,
    "is_public": true
  },
  {
    "buoy_id": "45215",
    "name": "Oswego, NY (274)",
    "lat": 43.501,
    "lng": -76.539,
    "is_public": true
  },
  {
    "buoy_id": "45216",
    "name": "Ontonagon, MI",
    "lat": 46.907,
    "lng": -89.354,
    "is_public": true
  },
  {
    "buoy_id": "45218",
    "name": "Wisconsin Shipwreck Coast NMS / Sheboygan, WI",
    "lat": 43.731,
    "lng": -87.624,
    "is_public": true
  },
  {
    "buoy_id": "45219",
    "name": "Two Harbors Nearshore Buoy",
    "lat": 47.021,
    "lng": -91.625,
    "is_public": true
  },
  {
    "buoy_id": "45221",
    "name": "North Lake Champlain",
    "lat": 44.756,
    "lng": -73.355,
    "is_public": true
  },
  {
    "buoy_id": "45t01",
    "name": "MID SUPERIOR- 60NM North Northeast Hancock, MI",
    "lat": 48.008,
    "lng": -87.666,
    "is_public": true
  },
  {
    "buoy_id": "46001",
    "name": "WESTERN GULF OF ALASKA  - 175NM SE of Kodiak, AK",
    "lat": 56.296,
    "lng": -148.027,
    "is_public": true
  },
  {
    "buoy_id": "46002",
    "name": "WEST OREGON - 275NM West of Coos Bay, OR",
    "lat": 42.56,
    "lng": -130.523,
    "is_public": true
  },
  {
    "buoy_id": "46003",
    "name": "S ALEUTIANS",
    "lat": 51.831,
    "lng": -155.85,
    "is_public": true
  },
  {
    "buoy_id": "46004",
    "name": "Middle Nomad",
    "lat": 50.93,
    "lng": -136.1,
    "is_public": true
  },
  {
    "buoy_id": "46005",
    "name": "WEST WASHINGTON - 300NM West of Aberdeen, WA",
    "lat": 46.143,
    "lng": -131.09,
    "is_public": true
  },
  {
    "buoy_id": "46006",
    "name": "SOUTHEAST PAPA - 600NM West of Eureka, CA",
    "lat": 40.722,
    "lng": -137.436,
    "is_public": true
  },
  {
    "buoy_id": "46007",
    "name": "46007",
    "lat": 59.2,
    "lng": -152.7,
    "is_public": true
  },
  {
    "buoy_id": "46008",
    "name": "46008",
    "lat": 57.1,
    "lng": -151.7,
    "is_public": true
  },
  {
    "buoy_id": "46009",
    "name": "46009",
    "lat": 60.2,
    "lng": -146.8,
    "is_public": true
  },
  {
    "buoy_id": "46010",
    "name": "46010",
    "lat": 46.2,
    "lng": -124.2,
    "is_public": true
  },
  {
    "buoy_id": "46011",
    "name": "SANTA MARIA - 21NM NW of Point Arguello, CA",
    "lat": 34.937,
    "lng": -120.999,
    "is_public": true
  },
  {
    "buoy_id": "46012",
    "name": "HALF MOON BAY - 24NM SSW of San Francisco, CA",
    "lat": 37.356,
    "lng": -122.881,
    "is_public": true
  },
  {
    "buoy_id": "46013",
    "name": "BODEGA BAY - 48NM NW of San Francisco, CA",
    "lat": 38.235,
    "lng": -123.317,
    "is_public": true
  },
  {
    "buoy_id": "46014",
    "name": "PT ARENA - 19NM North of Point Arena, CA",
    "lat": 39.225,
    "lng": -123.98,
    "is_public": true
  },
  {
    "buoy_id": "46015",
    "name": "PORT ORFORD - 15 NM West of Port Orford, OR",
    "lat": 42.754,
    "lng": -124.839,
    "is_public": true
  },
  {
    "buoy_id": "46016",
    "name": "46016",
    "lat": 63.283,
    "lng": -170.3,
    "is_public": true
  },
  {
    "buoy_id": "46017",
    "name": "46017",
    "lat": 60.283,
    "lng": -172.3,
    "is_public": true
  },
  {
    "buoy_id": "46018",
    "name": "46018",
    "lat": 60.283,
    "lng": -177,
    "is_public": true
  },
  {
    "buoy_id": "46019",
    "name": "46019",
    "lat": 57.2,
    "lng": -170.3,
    "is_public": true
  },
  {
    "buoy_id": "46020",
    "name": "46020",
    "lat": 55.883,
    "lng": -168,
    "is_public": true
  },
  {
    "buoy_id": "46021",
    "name": "46021",
    "lat": 57.7,
    "lng": -160,
    "is_public": true
  },
  {
    "buoy_id": "46022",
    "name": "EEL RIVER - 17NM WSW of Eureka, CA",
    "lat": 40.716,
    "lng": -124.54,
    "is_public": true
  },
  {
    "buoy_id": "46023",
    "name": "PT ARGUELLO - 17NM WNW of Point Arguello, CA",
    "lat": 34.714,
    "lng": -120.967,
    "is_public": true
  },
  {
    "buoy_id": "46024",
    "name": "46024",
    "lat": 33,
    "lng": -119.2,
    "is_public": true
  },
  {
    "buoy_id": "46025",
    "name": "Santa Monica Basin - 33NM WSW of Santa Monica, CA",
    "lat": 33.755,
    "lng": -119.045,
    "is_public": true
  },
  {
    "buoy_id": "46026",
    "name": "SAN FRANCISCO - 18NM West of San Francisco, CA",
    "lat": 37.75,
    "lng": -122.838,
    "is_public": true
  },
  {
    "buoy_id": "46027",
    "name": "ST GEORGES - 8 NM NW of Crescent City, CA",
    "lat": 41.84,
    "lng": -124.382,
    "is_public": true
  },
  {
    "buoy_id": "46028",
    "name": "CAPE SAN MARTIN - 55NM West NW of Morro Bay, CA",
    "lat": 35.77,
    "lng": -121.903,
    "is_public": true
  },
  {
    "buoy_id": "46029",
    "name": "COLUMBIA RIVER BAR - 20NM West of Columbia River Mouth",
    "lat": 46.148,
    "lng": -124.508,
    "is_public": true
  },
  {
    "buoy_id": "46030",
    "name": "BLUNTS REEF",
    "lat": 40.423,
    "lng": -124.525,
    "is_public": true
  },
  {
    "buoy_id": "46031",
    "name": "46031",
    "lat": 55.5,
    "lng": -161.683,
    "is_public": true
  },
  {
    "buoy_id": "46032",
    "name": "46032",
    "lat": 54.2,
    "lng": -165.8,
    "is_public": true
  },
  {
    "buoy_id": "46033",
    "name": "46033",
    "lat": 55.783,
    "lng": -159.8,
    "is_public": true
  },
  {
    "buoy_id": "46034",
    "name": "46034",
    "lat": 55.1,
    "lng": -163.1,
    "is_public": true
  },
  {
    "buoy_id": "46035",
    "name": "CENTRAL BERING SEA - 310 NM North of Adak, AK",
    "lat": 57.034,
    "lng": -177.468,
    "is_public": true
  },
  {
    "buoy_id": "46036",
    "name": "South Nomad",
    "lat": 48.36,
    "lng": -133.94,
    "is_public": true
  },
  {
    "buoy_id": "46037",
    "name": "46037",
    "lat": 48.3,
    "lng": -133.8,
    "is_public": true
  },
  {
    "buoy_id": "46038",
    "name": "46038",
    "lat": 41.9,
    "lng": -124.4,
    "is_public": true
  },
  {
    "buoy_id": "46039",
    "name": "46039",
    "lat": 48.2,
    "lng": -123.4,
    "is_public": true
  },
  {
    "buoy_id": "46040",
    "name": "46040",
    "lat": 44.8,
    "lng": -124.3,
    "is_public": true
  },
  {
    "buoy_id": "46041",
    "name": "CAPE ELIZABETH - 45NM NW of Aberdeen, WA",
    "lat": 47.352,
    "lng": -124.739,
    "is_public": true
  },
  {
    "buoy_id": "46042",
    "name": "MONTEREY - 27NM WNW of Monterey, CA",
    "lat": 36.785,
    "lng": -122.396,
    "is_public": true
  },
  {
    "buoy_id": "46043",
    "name": "46043",
    "lat": 46.9,
    "lng": -124.2,
    "is_public": true
  },
  {
    "buoy_id": "46044",
    "name": "46044",
    "lat": 36.7,
    "lng": -122.378,
    "is_public": true
  },
  {
    "buoy_id": "46045",
    "name": "REDONDO BEACH",
    "lat": 33.84,
    "lng": -118.45,
    "is_public": true
  },
  {
    "buoy_id": "46047",
    "name": "TANNER BANK - 121 NM West of San Diego, CA",
    "lat": 32.418,
    "lng": -119.535,
    "is_public": true
  },
  {
    "buoy_id": "46048",
    "name": "46048",
    "lat": 32.9,
    "lng": -117.9,
    "is_public": true
  },
  {
    "buoy_id": "46050",
    "name": "STONEWALL BANK - 20NM West of Newport, OR",
    "lat": 44.679,
    "lng": -124.535,
    "is_public": true
  },
  {
    "buoy_id": "46051",
    "name": "Harvest Experiment Platform",
    "lat": 34.48,
    "lng": -120.69,
    "is_public": true
  },
  {
    "buoy_id": "46053",
    "name": "EAST SANTA BARBARA  - 12NM Southwest of Santa Barbara, CA",
    "lat": 34.241,
    "lng": -119.839,
    "is_public": true
  },
  {
    "buoy_id": "46054",
    "name": "WEST SANTA BARBARA  38 NM West of Santa Barbara, CA",
    "lat": 34.274,
    "lng": -120.468,
    "is_public": true
  },
  {
    "buoy_id": "46059",
    "name": "WEST CALIFORNIA - 357NM West of San Francisco, CA",
    "lat": 38.067,
    "lng": -129.895,
    "is_public": true
  },
  {
    "buoy_id": "46060",
    "name": "WEST ORCA BAY - 8NM NW of Hinchinbrook Is., AK",
    "lat": 60.571,
    "lng": -146.795,
    "is_public": true
  },
  {
    "buoy_id": "46061",
    "name": "Seal Rocks - Between Montague and Hinchinbrook Islands, AK",
    "lat": 60.23,
    "lng": -146.837,
    "is_public": true
  },
  {
    "buoy_id": "46062",
    "name": "Pt. San Luis, CA - 18 NM South Southwest of Morro Bay, CA",
    "lat": 35.101,
    "lng": -121.01,
    "is_public": true
  },
  {
    "buoy_id": "46063",
    "name": "Pt.Conception, CA - 50NM West of Santa Barbara, CA",
    "lat": 34.273,
    "lng": -120.699,
    "is_public": true
  },
  {
    "buoy_id": "46066",
    "name": "SOUTH KODIAK - 310NM SSW of Kodiak, AK",
    "lat": 52.776,
    "lng": -154.992,
    "is_public": true
  },
  {
    "buoy_id": "46069",
    "name": "SOUTH SANTA ROSA - 14 NM SW of Santa Rosa Island, CA",
    "lat": 33.677,
    "lng": -120.213,
    "is_public": true
  },
  {
    "buoy_id": "46070",
    "name": "SOUTHWEST BERING SEA - 142NM NNE OF ATTU IS, AK",
    "lat": 55.048,
    "lng": 175.246,
    "is_public": true
  },
  {
    "buoy_id": "46071",
    "name": "WESTERN ALEUTIANS - 14NM SOUTH OF AMCHITKA IS, AK",
    "lat": 51.04,
    "lng": 179.764,
    "is_public": true
  },
  {
    "buoy_id": "46072",
    "name": "CENTRAL ALEUTIANS 230 NM SW Dutch Harbor",
    "lat": 51.645,
    "lng": -172.145,
    "is_public": true
  },
  {
    "buoy_id": "46073",
    "name": "SOUTHEAST BERING SEA - 205 NM WNW of Dutch Harbor, AK",
    "lat": 55.008,
    "lng": -172.012,
    "is_public": true
  },
  {
    "buoy_id": "46075",
    "name": "SHUMAGIN ISLANDS - 85NM South of Sand Point, AK",
    "lat": 53.969,
    "lng": -160.794,
    "is_public": true
  },
  {
    "buoy_id": "46076",
    "name": "CAPE CLEARE - 17 NM South of Montague Is,  AK",
    "lat": 59.508,
    "lng": -148.005,
    "is_public": true
  },
  {
    "buoy_id": "46077",
    "name": "SHELIKOF STRAIT, AK",
    "lat": 57.869,
    "lng": -154.211,
    "is_public": true
  },
  {
    "buoy_id": "46078",
    "name": "ALBATROSS BANK - 104NM South of Kodiak Is., AK",
    "lat": 55.561,
    "lng": -152.599,
    "is_public": true
  },
  {
    "buoy_id": "46079",
    "name": "Barren Island",
    "lat": 59.05,
    "lng": -152.23,
    "is_public": true
  },
  {
    "buoy_id": "46080",
    "name": "PORTLOCK BANK - 76 NM ENE of Kodiak, AK",
    "lat": 57.91,
    "lng": -150.129,
    "is_public": true
  },
  {
    "buoy_id": "46081",
    "name": "Western Prince William Sound",
    "lat": 60.802,
    "lng": -148.283,
    "is_public": true
  },
  {
    "buoy_id": "46082",
    "name": "Cape Suckling - 35 NM SE of Kayak Is, AK",
    "lat": 59.67,
    "lng": -143.353,
    "is_public": true
  },
  {
    "buoy_id": "46083",
    "name": "FAIRWEATHER GROUND - 105 NM West  of Juneau, AK",
    "lat": 58.276,
    "lng": -138.024,
    "is_public": true
  },
  {
    "buoy_id": "46084",
    "name": "CAPE EDGECUMBE - 25NM SSW of Cape Edgecumbe, AK",
    "lat": 56.614,
    "lng": -136.04,
    "is_public": true
  },
  {
    "buoy_id": "46085",
    "name": "CENTRAL GULF OF ALASKA -  265NM West of Cape Ommaney, AK",
    "lat": 55.84,
    "lng": -142.895,
    "is_public": true
  },
  {
    "buoy_id": "46086",
    "name": "SAN CLEMENTE BASIN - 27NM SE Of San Clemente Is, CA",
    "lat": 32.504,
    "lng": -118.029,
    "is_public": true
  },
  {
    "buoy_id": "46087",
    "name": "Neah Bay - 6 NM North of Cape Flattery, WA (Traffic Separation Lighted Buoy)",
    "lat": 48.493,
    "lng": -124.727,
    "is_public": true
  },
  {
    "buoy_id": "46088",
    "name": "NEW DUNGENESS - 17 NM NE of Port Angeles, WA",
    "lat": 48.332,
    "lng": -123.179,
    "is_public": true
  },
  {
    "buoy_id": "46089",
    "name": "TILLAMOOK, OR - 85 NM WNW of Tillamook, OR",
    "lat": 45.928,
    "lng": -125.815,
    "is_public": true
  },
  {
    "buoy_id": "46090",
    "name": "SOCAL WEST NOOS WX BUOY",
    "lat": 32.876,
    "lng": -120.718,
    "is_public": true
  },
  {
    "buoy_id": "46091",
    "name": "MBM0",
    "lat": 36.835,
    "lng": -121.899,
    "is_public": true
  },
  {
    "buoy_id": "46092",
    "name": "MBM1",
    "lat": 36.751,
    "lng": -122.029,
    "is_public": true
  },
  {
    "buoy_id": "46093",
    "name": "MBM2",
    "lat": 36.69,
    "lng": -122.41,
    "is_public": true
  },
  {
    "buoy_id": "46094",
    "name": "Buoy NH-10 - West of Newport, OR",
    "lat": 44.642,
    "lng": -124.3,
    "is_public": true
  },
  {
    "buoy_id": "46096",
    "name": "Columbia River Entrance - SATURN Station #02 Offshore",
    "lat": 46.173,
    "lng": -124.127,
    "is_public": true
  },
  {
    "buoy_id": "46097",
    "name": "OOI Newport Shelf",
    "lat": 44.639,
    "lng": -124.304,
    "is_public": true
  },
  {
    "buoy_id": "46098",
    "name": "OOI Waldport Offshore",
    "lat": 44.378,
    "lng": -124.947,
    "is_public": true
  },
  {
    "buoy_id": "46099",
    "name": "OOI Westport Shelf",
    "lat": 46.988,
    "lng": -124.567,
    "is_public": true
  },
  {
    "buoy_id": "46100",
    "name": "OOI Westport Offshore",
    "lat": 46.851,
    "lng": -124.964,
    "is_public": true
  },
  {
    "buoy_id": "46105",
    "name": "South Cook Inlet - 10NM NW of East Amatuli Light, AK",
    "lat": 59.049,
    "lng": -152.233,
    "is_public": true
  },
  {
    "buoy_id": "46106",
    "name": "Central Cook Inlet AK",
    "lat": 59.76,
    "lng": -152.09,
    "is_public": true
  },
  {
    "buoy_id": "46107",
    "name": "Montague Strait",
    "lat": 59.925,
    "lng": -147.992,
    "is_public": true
  },
  {
    "buoy_id": "46108",
    "name": "Lower Cook Inlet (204)",
    "lat": 59.598,
    "lng": -151.828,
    "is_public": true
  },
  {
    "buoy_id": "46109",
    "name": "Port Angeles Buoy",
    "lat": 48.123,
    "lng": -123.395,
    "is_public": true
  },
  {
    "buoy_id": "46110",
    "name": "Sequim Buoy",
    "lat": 48.115,
    "lng": -123.032,
    "is_public": true
  },
  {
    "buoy_id": "46111",
    "name": "Fort Worden Buoy",
    "lat": 48.131,
    "lng": -122.748,
    "is_public": true
  },
  {
    "buoy_id": "46112",
    "name": "Marrowstone Buoy",
    "lat": 48.1,
    "lng": -122.73,
    "is_public": true
  },
  {
    "buoy_id": "46113",
    "name": "Poulsbo Buoy",
    "lat": 47.73,
    "lng": -122.646,
    "is_public": true
  },
  {
    "buoy_id": "46114",
    "name": "West Monterey Bay, CA (185)",
    "lat": 36.7,
    "lng": -122.343,
    "is_public": true
  },
  {
    "buoy_id": "46115",
    "name": "Bering Sea",
    "lat": 57.069,
    "lng": -177.75,
    "is_public": true
  },
  {
    "buoy_id": "46116",
    "name": "SATURN Estuary Station #07, Baker Bay, WA",
    "lat": 46.287,
    "lng": -124.016,
    "is_public": true
  },
  {
    "buoy_id": "46117",
    "name": "SATURN Estuary Station #09, Youngs Bay, OR",
    "lat": 46.176,
    "lng": -123.869,
    "is_public": true
  },
  {
    "buoy_id": "46118",
    "name": "Se'lhaem Bellingham Bay",
    "lat": 48.724,
    "lng": -122.576,
    "is_public": true
  },
  {
    "buoy_id": "46119",
    "name": "Cha'Ba La Push",
    "lat": 47.967,
    "lng": -124.95,
    "is_public": true
  },
  {
    "buoy_id": "46120",
    "name": "Pt Wells, WA (U of Wash)",
    "lat": 47.761,
    "lng": -122.397,
    "is_public": true
  },
  {
    "buoy_id": "46121",
    "name": "Carr Inlet, WA (U of Wash)",
    "lat": 47.28,
    "lng": -122.73,
    "is_public": true
  },
  {
    "buoy_id": "46122",
    "name": "Dabob Bay, WA (U of Wash)",
    "lat": 47.803,
    "lng": -122.803,
    "is_public": true
  },
  {
    "buoy_id": "46123",
    "name": "Twanoh - Hood Canal, WA (U of Wash)",
    "lat": 47.375,
    "lng": -123.008,
    "is_public": true
  },
  {
    "buoy_id": "46124",
    "name": "Hoodsport - Hood Canal, WA (U of Wash)",
    "lat": 47.422,
    "lng": -123.113,
    "is_public": true
  },
  {
    "buoy_id": "46125",
    "name": "Hansville - Hood Canal, WA",
    "lat": 47.907,
    "lng": -122.627,
    "is_public": true
  },
  {
    "buoy_id": "46126",
    "name": "Wide Bay (Shell)",
    "lat": 53.951,
    "lng": -166.602,
    "is_public": true
  },
  {
    "buoy_id": "46127",
    "name": "SATURN Offshore Station #10, Columbia River, South Jetty, OR",
    "lat": 46.215,
    "lng": -124.063,
    "is_public": true
  },
  {
    "buoy_id": "46128",
    "name": "Buoy CB-06 - West of Coos Bay, OR",
    "lat": 43.292,
    "lng": -124.538,
    "is_public": true
  },
  {
    "buoy_id": "46131",
    "name": "Sentry Shoal",
    "lat": 49.91,
    "lng": -124.98,
    "is_public": true
  },
  {
    "buoy_id": "46132",
    "name": "South Brooks",
    "lat": 49.78,
    "lng": -127.89,
    "is_public": true
  },
  {
    "buoy_id": "46134",
    "name": "Pat Bay",
    "lat": 48.65,
    "lng": -123.5,
    "is_public": true
  },
  {
    "buoy_id": "46138",
    "name": "South Hecate Strait, Canada (174)",
    "lat": 52.437,
    "lng": -129.795,
    "is_public": true
  },
  {
    "buoy_id": "46139",
    "name": "La Perouse Bank DWR, Canada  (195)",
    "lat": 48.844,
    "lng": -126.01,
    "is_public": true
  },
  {
    "buoy_id": "46145",
    "name": "Central Dixon Entrance Buoy",
    "lat": 54.37,
    "lng": -132.42,
    "is_public": true
  },
  {
    "buoy_id": "46146",
    "name": "Halibut Bank",
    "lat": 49.34,
    "lng": -123.73,
    "is_public": true
  },
  {
    "buoy_id": "46147",
    "name": "South Moresby",
    "lat": 51.83,
    "lng": -131.22,
    "is_public": true
  },
  {
    "buoy_id": "46181",
    "name": "Nanakwa Shoal",
    "lat": 53.83,
    "lng": -128.83,
    "is_public": true
  },
  {
    "buoy_id": "46183",
    "name": "North Hecate Strait",
    "lat": 53.62,
    "lng": -131.1,
    "is_public": true
  },
  {
    "buoy_id": "46184",
    "name": "North Nomad",
    "lat": 53.92,
    "lng": -138.85,
    "is_public": true
  },
  {
    "buoy_id": "46185",
    "name": "South Hecate Strait",
    "lat": 52.42,
    "lng": -129.79,
    "is_public": true
  },
  {
    "buoy_id": "46204",
    "name": "West Sea Otter",
    "lat": 51.38,
    "lng": -128.77,
    "is_public": true
  },
  {
    "buoy_id": "46205",
    "name": "West Dixon Entrance",
    "lat": 54.18,
    "lng": -134.32,
    "is_public": true
  },
  {
    "buoy_id": "46206",
    "name": "La Perouse Bank",
    "lat": 48.84,
    "lng": -126,
    "is_public": true
  },
  {
    "buoy_id": "46207",
    "name": "East Dellwood",
    "lat": 50.87,
    "lng": -129.92,
    "is_public": true
  },
  {
    "buoy_id": "46208",
    "name": "West Moresby",
    "lat": 52.52,
    "lng": -132.69,
    "is_public": true
  },
  {
    "buoy_id": "46211",
    "name": "Grays Harbor, WA (036)",
    "lat": 46.857,
    "lng": -124.243,
    "is_public": true
  },
  {
    "buoy_id": "46212",
    "name": "Humboldt Bay South Spit, CA (128)",
    "lat": 40.753,
    "lng": -124.313,
    "is_public": true
  },
  {
    "buoy_id": "46213",
    "name": "Cape Mendocino, CA (094)",
    "lat": 40.292,
    "lng": -124.748,
    "is_public": true
  },
  {
    "buoy_id": "46214",
    "name": "Point Reyes, CA (029)",
    "lat": 37.937,
    "lng": -123.463,
    "is_public": true
  },
  {
    "buoy_id": "46215",
    "name": "Diablo Canyon, CA (076)",
    "lat": 35.204,
    "lng": -120.859,
    "is_public": true
  },
  {
    "buoy_id": "46216",
    "name": "Goleta Point, CA (107)",
    "lat": 34.333,
    "lng": -119.803,
    "is_public": true
  },
  {
    "buoy_id": "46217",
    "name": "Anacapa Passage, CA (111)",
    "lat": 34.167,
    "lng": -119.435,
    "is_public": true
  },
  {
    "buoy_id": "46218",
    "name": "Harvest, CA (071)",
    "lat": 34.452,
    "lng": -120.78,
    "is_public": true
  },
  {
    "buoy_id": "46219",
    "name": "San Nicolas Island, CA (067)",
    "lat": 33.226,
    "lng": -119.891,
    "is_public": true
  },
  {
    "buoy_id": "46220",
    "name": "El Porto, CA (125)",
    "lat": 33.897,
    "lng": -118.446,
    "is_public": true
  },
  {
    "buoy_id": "46221",
    "name": "Santa Monica Bay, CA (028)",
    "lat": 33.86,
    "lng": -118.641,
    "is_public": true
  },
  {
    "buoy_id": "46222",
    "name": "San Pedro, CA (092)",
    "lat": 33.618,
    "lng": -118.317,
    "is_public": true
  },
  {
    "buoy_id": "46223",
    "name": "Dana Point, CA (096)",
    "lat": 33.458,
    "lng": -117.767,
    "is_public": true
  },
  {
    "buoy_id": "46224",
    "name": "Oceanside Offshore, CA (045)",
    "lat": 33.178,
    "lng": -117.472,
    "is_public": true
  },
  {
    "buoy_id": "46225",
    "name": "Torrey Pines Outer, CA (100)",
    "lat": 32.933,
    "lng": -117.391,
    "is_public": true
  },
  {
    "buoy_id": "46226",
    "name": "Point La Jolla, CA (095)",
    "lat": 32.848,
    "lng": -117.353,
    "is_public": true
  },
  {
    "buoy_id": "46227",
    "name": "Point Loma, CA (091)",
    "lat": 32.632,
    "lng": -117.444,
    "is_public": true
  },
  {
    "buoy_id": "46228",
    "name": "Pitas Point, CA (130)",
    "lat": 34.317,
    "lng": -119.417,
    "is_public": true
  },
  {
    "buoy_id": "46229",
    "name": "UMPQUA OFFSHORE, OR (139)",
    "lat": 43.772,
    "lng": -124.549,
    "is_public": true
  },
  {
    "buoy_id": "46230",
    "name": "Huntington Beach Nearshore, CA (172)",
    "lat": 33.623,
    "lng": -118.012,
    "is_public": true
  },
  {
    "buoy_id": "46231",
    "name": "Mission Bay, CA (093)",
    "lat": 32.747,
    "lng": -117.37,
    "is_public": true
  },
  {
    "buoy_id": "46232",
    "name": "Point Loma South, CA  (191)",
    "lat": 32.517,
    "lng": -117.425,
    "is_public": true
  },
  {
    "buoy_id": "46233",
    "name": "SCCOOS San Diego Mooring",
    "lat": 32.936,
    "lng": -117.32,
    "is_public": true
  },
  {
    "buoy_id": "46234",
    "name": "Port Hueneme Nearshore, CA (141)",
    "lat": 34.1,
    "lng": -119.168,
    "is_public": true
  },
  {
    "buoy_id": "46235",
    "name": "Imperial Beach Nearshore, CA (155)",
    "lat": 32.57,
    "lng": -117.169,
    "is_public": true
  },
  {
    "buoy_id": "46236",
    "name": "Monterey Canyon Outer, CA  (156)",
    "lat": 36.759,
    "lng": -121.95,
    "is_public": true
  },
  {
    "buoy_id": "46237",
    "name": "San Francisco Bar, CA  (142)",
    "lat": 37.788,
    "lng": -122.634,
    "is_public": true
  },
  {
    "buoy_id": "46238",
    "name": "Santa Cruz Basin, CA (167)",
    "lat": 33.76,
    "lng": -119.55,
    "is_public": true
  },
  {
    "buoy_id": "46239",
    "name": "Point Sur, CA (157)",
    "lat": 36.335,
    "lng": -122.104,
    "is_public": true
  },
  {
    "buoy_id": "46240",
    "name": "Cabrillo Point, Monterey Bay, CA  (158)",
    "lat": 36.626,
    "lng": -121.907,
    "is_public": true
  },
  {
    "buoy_id": "46241",
    "name": "San Elijo Nearshore, CA (161)",
    "lat": 33.003,
    "lng": -117.292,
    "is_public": true
  },
  {
    "buoy_id": "46242",
    "name": "Camp Pendleton Nearshore, CA  (043)",
    "lat": 33.22,
    "lng": -117.439,
    "is_public": true
  },
  {
    "buoy_id": "46243",
    "name": "Clatsop Spit, OR (162)",
    "lat": 46.214,
    "lng": -124.126,
    "is_public": true
  },
  {
    "buoy_id": "46244",
    "name": "Humboldt Bay, North Spit, CA (168)",
    "lat": 40.896,
    "lng": -124.358,
    "is_public": true
  },
  {
    "buoy_id": "46245",
    "name": "Ventura Nearshore, CA - 169",
    "lat": 34.251,
    "lng": -119.308,
    "is_public": true
  },
  {
    "buoy_id": "46246",
    "name": "Ocean Station PAPA  (166)",
    "lat": 49.903,
    "lng": -145.246,
    "is_public": true
  },
  {
    "buoy_id": "46247",
    "name": "San Francisco Offshore, CA  (180)",
    "lat": 37.753,
    "lng": -122.833,
    "is_public": true
  },
  {
    "buoy_id": "46248",
    "name": "Astoria Canyon, OR  (179)",
    "lat": 46.133,
    "lng": -124.64,
    "is_public": true
  },
  {
    "buoy_id": "46249",
    "name": "Santa Cruz Island South, CA (182)",
    "lat": 33.821,
    "lng": -119.708,
    "is_public": true
  },
  {
    "buoy_id": "46250",
    "name": "Point Mugu Offshore, CA - 184",
    "lat": 34.034,
    "lng": -119.09,
    "is_public": true
  },
  {
    "buoy_id": "46251",
    "name": "Santa Cruz Basin, CA (203)",
    "lat": 33.769,
    "lng": -119.565,
    "is_public": true
  },
  {
    "buoy_id": "46252",
    "name": "Anacapa Passage South, CA (212)",
    "lat": 33.953,
    "lng": -119.257,
    "is_public": true
  },
  {
    "buoy_id": "46253",
    "name": "San Pedro South, CA (213)",
    "lat": 33.576,
    "lng": -118.181,
    "is_public": true
  },
  {
    "buoy_id": "46254",
    "name": "SCRIPPS Nearshore, CA (201)",
    "lat": 32.868,
    "lng": -117.267,
    "is_public": true
  },
  {
    "buoy_id": "46255",
    "name": "Begg Rock, CA  (138)",
    "lat": 33.4,
    "lng": -119.651,
    "is_public": true
  },
  {
    "buoy_id": "46256",
    "name": "Long Beach Channel, CA (215)",
    "lat": 33.7,
    "lng": -118.201,
    "is_public": true
  },
  {
    "buoy_id": "46257",
    "name": "Harvest Southeast, CA (216)",
    "lat": 34.439,
    "lng": -120.766,
    "is_public": true
  },
  {
    "buoy_id": "46258",
    "name": "Mission Bay West, CA (220)",
    "lat": 32.749,
    "lng": -117.502,
    "is_public": true
  },
  {
    "buoy_id": "46259",
    "name": "Santa Lucia Escarpment, CA (222)",
    "lat": 34.774,
    "lng": -121.491,
    "is_public": true
  },
  {
    "buoy_id": "46260",
    "name": "Lakeside, OR (231)",
    "lat": 43.586,
    "lng": -124.29,
    "is_public": true
  },
  {
    "buoy_id": "46261",
    "name": "Reedsport, OR (232)",
    "lat": 43.76,
    "lng": -124.225,
    "is_public": true
  },
  {
    "buoy_id": "46262",
    "name": "Santa Barbara Island North, CA (234)",
    "lat": 33.704,
    "lng": -119.004,
    "is_public": true
  },
  {
    "buoy_id": "46263",
    "name": "Fort Bragg South, CA (235)",
    "lat": 39.37,
    "lng": -123.912,
    "is_public": true
  },
  {
    "buoy_id": "46264",
    "name": "Kodiak, AK (236)",
    "lat": 57.479,
    "lng": -151.695,
    "is_public": true
  },
  {
    "buoy_id": "46265",
    "name": "Nome, AK (241)",
    "lat": 64.474,
    "lng": -165.479,
    "is_public": true
  },
  {
    "buoy_id": "46266",
    "name": "Del Mar Nearshore, CA (153)",
    "lat": 32.957,
    "lng": -117.279,
    "is_public": true
  },
  {
    "buoy_id": "46267",
    "name": "Angeles Point, WA (248)",
    "lat": 48.173,
    "lng": -123.607,
    "is_public": true
  },
  {
    "buoy_id": "46268",
    "name": "Topanga Nearshore, CA (103)",
    "lat": 34.022,
    "lng": -118.578,
    "is_public": true
  },
  {
    "buoy_id": "46269",
    "name": "Point Santa Cruz, CA (254)",
    "lat": 36.934,
    "lng": -122.034,
    "is_public": true
  },
  {
    "buoy_id": "46270",
    "name": "S.W. Bering Sea",
    "lat": 55.003,
    "lng": 175.284,
    "is_public": true
  },
  {
    "buoy_id": "46273",
    "name": "Torrey Pines Inner, CA (101)",
    "lat": 32.93,
    "lng": -117.274,
    "is_public": true
  },
  {
    "buoy_id": "46274",
    "name": "Leucadia Nearshore, CA (262)",
    "lat": 33.062,
    "lng": -117.314,
    "is_public": true
  },
  {
    "buoy_id": "46275",
    "name": "Red Beach Nearshore, CA (264)",
    "lat": 33.291,
    "lng": -117.501,
    "is_public": true
  },
  {
    "buoy_id": "46276",
    "name": "Pajaro Beach, CA (266)",
    "lat": 36.845,
    "lng": -121.825,
    "is_public": true
  },
  {
    "buoy_id": "46277",
    "name": "Green Beach Offshore, CA (271)",
    "lat": 33.336,
    "lng": -117.659,
    "is_public": true
  },
  {
    "buoy_id": "46278",
    "name": "Tillamook Bay South Jetty, OR (270)",
    "lat": 45.561,
    "lng": -123.991,
    "is_public": true
  },
  {
    "buoy_id": "46279",
    "name": "Pajaro Beach South, CA (267)",
    "lat": 36.838,
    "lng": -121.82,
    "is_public": true
  },
  {
    "buoy_id": "46280",
    "name": "Newport PWS North (277)",
    "lat": 44.575,
    "lng": -124.234,
    "is_public": true
  },
  {
    "buoy_id": "46281",
    "name": "Newport PWS South, OR (278)",
    "lat": 44.559,
    "lng": -124.233,
    "is_public": true
  },
  {
    "buoy_id": "46282",
    "name": "Aptos Creek Nearshore, CA 275",
    "lat": 36.951,
    "lng": -121.921,
    "is_public": true
  },
  {
    "buoy_id": "46283",
    "name": "Yaquina Channel SW, OR (280)",
    "lat": 44.567,
    "lng": -124.237,
    "is_public": true
  },
  {
    "buoy_id": "46284",
    "name": "Soquel Cove South, CA (281)",
    "lat": 36.93,
    "lng": -121.934,
    "is_public": true
  },
  {
    "buoy_id": "46285",
    "name": "Capistrano Beach Nearshore, CA (284)",
    "lat": 33.445,
    "lng": -117.68,
    "is_public": true
  },
  {
    "buoy_id": "46290",
    "name": "NOOSS Optimization Buoy",
    "lat": 32.659,
    "lng": -120.63,
    "is_public": true
  },
  {
    "buoy_id": "46303",
    "name": "Southern Georgia Strait",
    "lat": 49.02,
    "lng": -123.43,
    "is_public": true
  },
  {
    "buoy_id": "46304",
    "name": "Entrance To English Bay",
    "lat": 49.3,
    "lng": -123.36,
    "is_public": true
  },
  {
    "buoy_id": "46401",
    "name": "SOUTHEAST ADAK - 377NM SE of Adak, AK",
    "lat": 46.638,
    "lng": -170.79,
    "is_public": true
  },
  {
    "buoy_id": "46402",
    "name": "South Dutch Harbor - 220 NM SSE of Dutch Harbor, AK",
    "lat": 50.913,
    "lng": -164.147,
    "is_public": true
  },
  {
    "buoy_id": "46403",
    "name": "SOUTHEAST SHUMAGIN ISLAND - 186 NM SE of Shumagin Is, AK",
    "lat": 52.654,
    "lng": -156.813,
    "is_public": true
  },
  {
    "buoy_id": "46404",
    "name": "WEST ASTORIA - 230 NM West of Astoria, OR",
    "lat": 45.852,
    "lng": -128.745,
    "is_public": true
  },
  {
    "buoy_id": "46405",
    "name": "325 NM West-Southwest of Newport, OR",
    "lat": 42.903,
    "lng": -130.909,
    "is_public": true
  },
  {
    "buoy_id": "46406",
    "name": "2,900 NM Southeast of Hawaii",
    "lat": -8.491,
    "lng": -125.022,
    "is_public": true
  },
  {
    "buoy_id": "46407",
    "name": "NEWPORT - 210NM West of Coos Bay, OR",
    "lat": 42.704,
    "lng": -128.895,
    "is_public": true
  },
  {
    "buoy_id": "46408",
    "name": "NIKOLSKI - 212 NM South of Umnak Is, AK",
    "lat": 49.677,
    "lng": -169.825,
    "is_public": true
  },
  {
    "buoy_id": "46409",
    "name": "SOUTHEAST KODIAK - 210 NM SE of Kodiak, AK",
    "lat": 55.338,
    "lng": -148.575,
    "is_public": true
  },
  {
    "buoy_id": "46410",
    "name": "SOUTH CORDOVA - 188 NM SSE of Cordova, AK",
    "lat": 57.649,
    "lng": -143.769,
    "is_public": true
  },
  {
    "buoy_id": "46411",
    "name": "Mendocino - 150 NM West of  Mendocino Bay, CA",
    "lat": 39.337,
    "lng": -127.04,
    "is_public": true
  },
  {
    "buoy_id": "46412",
    "name": "San Diego - 175 NM West of San Diego, CA",
    "lat": 32.4,
    "lng": -120.582,
    "is_public": true
  },
  {
    "buoy_id": "46413",
    "name": "SOUTH-SOUTHEAST ADAK - 243 NM SSE of Adak Island, AK",
    "lat": 48.045,
    "lng": -173.897,
    "is_public": true
  },
  {
    "buoy_id": "46414",
    "name": "SOUTHEAST CHIRIKOF - 165 NM SE of Chirikof Island, AK",
    "lat": 53.756,
    "lng": -152.456,
    "is_public": true
  },
  {
    "buoy_id": "46415",
    "name": "SOUTHWEST JUNEAU - 370 NM SW of Juneau, AK",
    "lat": 53.035,
    "lng": -139.884,
    "is_public": true
  },